Network ID,Network Name,Native ID,Station ID,Station Name,History ID,Province,Longitude,Latitude,Elevation (m),Record Start,Record End,Obs Freq,Variables
1,EC,1120090,231,ADRA,634,BC,-119.583333,49.733333,1003.0,1928-09-01,1953-08-31,Daily,Precipitation Amount|Rainfall Amount|Snowfall Amount
1,EC,1120475,232,ARMSTRONG GRANDVIEW,635,BC,-119.283333,50.4,503.0,1959-03-27,1960-06-30,Daily,Precipitation Amount|Rainfall Amount|Snowfall Amount
1,EC,1123977,233,KELOWNA BYLANDS,636,BC,-119.583333,49.866667,480.0,1994-05-01,1995-10-31,Daily,Precipitation Amount|Rainfall Amount|Snowfall Amount|Surface Snow Depth (Point)
1,EC,1125703,237,OKANAGAN MISSION,640,BC,-119.516667,49.8,408.0,1970-11-15,2001-01-01,Daily,Precipitation Amount|Precipitation Climatology|Rainfall Amount|Snowfall Amount|Surface Snow Depth (Point)
1,EC,1126080,241,PEACHLAND TREPANIER CR,644,BC,-119.833333,49.783333,549.0,1924-10-01,1943-05-31,Daily,Precipitation Amount|Rainfall Amount|Snowfall Amount
1,EC,1126135,242,PENNASK LAKE LODGE,645,BC,-120.15,50.0,1420.0,1970-05-01,1972-09-30,Daily,Precipitation Amount|Rainfall Amount|Snowfall Amount
1,EC,1128586,245,VERNON SWAN LAKE,648,BC,-119.266667,50.3,490.0,1994-05-01,2007-03-18,Daily,Precipitation Amount|Precipitation Climatology|Rainfall Amount|Snowfall Amount|Surface Snow Depth (Point)
1,EC,1128959,246,WINFIELD WOOD LAKE,649,BC,-119.383333,50.05,457.0,1969-03-01,2000-10-01,Daily,Precipitation Amount|Precipitation Climatology|Rainfall Amount|Snowfall Amount
1,EC,1142826,253,FAUQUIER 2,656,BC,-118.066667,49.866667,470.0,1990-08-01,2000-10-01,Daily,Precipitation Amount|Precipitation Climatology|Rainfall Amount|Snowfall Amount|Surface Snow Depth (Point)
1,EC,1145420,256,NEEDLES WHATSHAN PH,659,BC,-118.066667,49.916667,433.0,1955-08-20,1969-01-31,Daily,Precipitation Amount|Rainfall Amount|Snowfall Amount
1,EC,1147020,259,SANDON,662,BC,-117.216667,49.966667,1082.0,1941-07-01,1964-12-31,Daily,Precipitation Amount|Rainfall Amount|Snowfall Amount
1,EC,1164770,283,MABEL LAKE,686,BC,-118.783333,50.383333,399.0,1924-07-01,2001-01-01,Daily,Precipitation Amount|Precipitation Climatology|Rainfall Amount|Snowfall Amount
1,EC,1120486,1013,ARMSTRONG OTTER LAKE,1416,BC,-119.25,50.4,342.0,1991-04-01,1992-09-30,Daily,Precipitation Amount|Rainfall Amount|Snowfall Amount|Surface Snow Depth (Point)|Temperature (Max.)|Temperature (Min.)
1,EC,1120630,1014,BANKEIR,1417,BC,-120.233333,49.716667,1097.0,1954-08-20,1959-07-31,Daily,Precipitation Amount|Rainfall Amount|Snowfall Amount|Temperature (Max.)|Temperature (Min.)
1,EC,1122541,1021,DOUGLAS LAKE,1424,BC,-120.2,50.166667,808.0,1979-06-01,2007-02-28,Daily,Precipitation Amount|Precipitation Climatology|Rainfall Amount|Snowfall Amount|Surface Snow Depth (Point)|Temperature (Max.)|Temperature (Min.)|Temperature Climatology (Max.)|Temperature Climatology (Mean)|Temperature Climatology (Min.)
1,EC,1123195,1022,GLENEMMA,1425,BC,-119.316667,50.366667,0.0,1914-11-01,1925-02-28,Daily,Precipitation Amount|Rainfall Amount|Snowfall Amount|Temperature (Max.)|Temperature (Min.)
1,EC,1123750,1029,JOE RICH CREEK,1432,BC,-119.133333,49.85,875.0,1928-09-01,2008-12-31,Daily,Precipitation Amount|Precipitation Climatology|Rainfall Amount|Snowfall Amount|Surface Snow Depth (Point)|Temperature (Max.)|Temperature (Min.)|Temperature Climatology (Max.)|Temperature Climatology (Mean)|Temperature Climatology (Min.)
1,EC,1123930,1030,KELOWNA,1433,BC,-119.466667,49.9,354.0,1899-03-01,1962-09-30,Daily,Precipitation Amount|Rainfall Amount|Snowfall Amount|Temperature (Max.)|Temperature (Min.)
1,EC,1123965,1031,KELOWNA AWOS,1434,BC,-119.383333,49.95,430.0,2005-01-21,2010-02-22,Daily,Precipitation Amount|Temperature (Max.)|Temperature (Min.)
1,EC,1123970,1032,KELOWNA A,1435,BC,-119.383333,49.95,430.0,1968-10-01,2005-09-30,Daily,Precipitation Amount|Precipitation Climatology|Rainfall Amount|Snowfall Amount|Surface Snow Depth (Point)|Temperature (Max.)|Temperature (Min.)|Temperature Climatology (Max.)|Temperature Climatology (Mean)|Temperature Climatology (Min.)
1,EC,1123972,1033,KELOWNA BANKHEAD,1436,BC,-119.3,49.9,0.0,1914-03-25,1931-06-30,Daily,Precipitation Amount|Rainfall Amount|Snowfall Amount|Temperature (Max.)|Temperature (Min.)
1,EC,1123975,1034,KELOWNA BOWES STREET,1437,BC,-119.466667,49.883333,351.0,1961-08-01,1969-11-11,Daily,Precipitation Amount|Rainfall Amount|Snowfall Amount|Temperature (Max.)|Temperature (Min.)
1,EC,1123980,1035,KELOWNA CDA,1438,BC,-119.416667,49.866667,485.0,1950-01-01,1970-04-30,Daily,Precipitation Amount|Rainfall Amount|Snowfall Amount|Surface Snow Depth (Point)|Temperature (Max.)|Temperature (Min.)
1,EC,1123981,1036,KELOWNA CEDARCREEK,1439,BC,-119.533333,49.783333,375.0,1994-05-01,2008-11-30,Daily,Precipitation Amount|Precipitation Climatology|Rainfall Amount|Snowfall Amount|Surface Snow Depth (Point)|Temperature (Max.)|Temperature (Min.)|Temperature Climatology (Max.)|Temperature Climatology (Mean)|Temperature Climatology (Min.)
1,EC,1123982,1037,KELOWNA DAV-SPIERS ROAD,1440,BC,-119.45,49.85,375.0,1978-06-01,2004-09-30,Daily,Precipitation Amount|Precipitation Climatology|Rainfall Amount|Snowfall Amount|Surface Snow Depth (Point)|Temperature (Max.)|Temperature (Min.)|Temperature Climatology (Max.)|Temperature Climatology (Mean)|Temperature Climatology (Min.)
1,EC,1123984,1038,KELOWNA EAST,1441,BC,-119.4,49.866667,491.0,1980-08-01,2001-01-01,Daily,Precipitation Amount|Precipitation Climatology|Rainfall Amount|Snowfall Amount|Surface Snow Depth (Point)|Temperature (Max.)|Temperature (Min.)|Temperature Climatology (Max.)|Temperature Climatology (Mean)|Temperature Climatology (Min.)
1,EC,1123990,1039,KELOWNA LAKEVIEW,1442,BC,-119.55,49.866667,525.0,1952-05-01,2001-01-01,Daily,Precipitation Amount|Precipitation Climatology|Rainfall Amount|Snowfall Amount|Surface Snow Depth (Point)|Temperature (Max.)|Temperature (Min.)|Temperature Climatology (Max.)|Temperature Climatology (Mean)|Temperature Climatology (Min.)
1,EC,1123992,1040,KELOWNA PC BURNETTS NURS,1443,BC,-119.483333,49.866667,350.0,1969-01-01,2003-04-30,Daily,Precipitation Amount|Precipitation Climatology|Rainfall Amount|Snowfall Amount|Surface Snow Depth (Point)|Temperature (Max.)|Temperature (Min.)|Temperature Climatology (Max.)|Temperature Climatology (Mean)|Temperature Climatology (Min.)
1,EC,1123993,1041,KELOWNA QUAILS GATE,1444,BC,-119.566667,49.85,417.0,1995-06-15,2014-04-07,Daily,Precipitation Amount|Precipitation Climatology|Rainfall Amount|Snowfall Amount|Surface Snow Depth (Point)|Temperature (Max.)|Temperature (Min.)|Temperature Climatology (Max.)|Temperature Climatology (Mean)|Temperature Climatology (Min.)
1,EC,11239R0,1042,KELOWNA MWS0,1445,BC,-119.4,49.95,456.0,1994-01-01,2017-06-29,Daily,Precipitation Amount|Precipitation Climatology|Rainfall Amount|Snowfall Amount|Surface Snow Depth (Point)|Temperature (Max.)|Temperature (Min.)|Temperature Climatology (Max.)|Temperature Climatology (Mean)|Temperature Climatology (Min.)
1,EC,1124980,1049,MCCULLOCH,1452,BC,-119.2,49.8,1250.0,1923-11-01,2001-01-01,Daily,Precipitation Amount|Precipitation Climatology|Rainfall Amount|Snowfall Amount|Surface Snow Depth (Point)|Temperature (Max.)|Temperature (Min.)|Temperature Climatology (Max.)|Temperature Climatology (Mean)|Temperature Climatology (Min.)
1,EC,1125570,1058,NICKLEN LAKE,1461,BC,-119.0,50.133333,1317.0,1990-07-01,2001-01-01,Daily,Precipitation Amount|Precipitation Climatology|Rainfall Amount|Snowfall Amount|Surface Snow Depth (Point)|Temperature (Max.)|Temperature (Min.)|Temperature Climatology (Max.)|Temperature Climatology (Mean)|Temperature Climatology (Min.)
1,EC,1125586,1060,NICOLA LAKE,1463,BC,-120.45,50.25,633.0,1979-06-01,2001-01-01,Daily,Precipitation Amount|Precipitation Climatology|Rainfall Amount|Snowfall Amount|Surface Snow Depth (Point)|Temperature (Max.)|Temperature (Min.)|Temperature Climatology (Max.)|Temperature Climatology (Mean)|Temperature Climatology (Min.)
1,EC,1125700,1062,OKANAGAN CENTRE,1465,BC,-119.4139,50.04,501.0,1925-03-01,2022-03-04,Daily,Precipitation Amount|Precipitation Climatology|Rainfall Amount|Snowfall Amount|Surface Snow Depth (Point)|Temperature (Max.)|Temperature (Min.)|Temperature Climatology (Max.)|Temperature Climatology (Mean)|Temperature Climatology (Min.)
1,EC,1125707,1063,OKANAGAN MISSION TOZER,1466,BC,-119.483333,49.816667,359.0,1984-12-01,2001-01-01,Daily,Precipitation Amount|Precipitation Climatology|Rainfall Amount|Snowfall Amount|Surface Snow Depth (Point)|Temperature (Max.)|Temperature (Min.)|Temperature Climatology (Max.)|Temperature Climatology (Mean)|Temperature Climatology (Min.)
1,EC,1125907,1073,OYAMA,1476,BC,-119.366667,50.116667,440.0,1965-06-01,2001-01-01,Daily,Precipitation Amount|Precipitation Climatology|Rainfall Amount|Snowfall Amount|Surface Snow Depth (Point)|Temperature (Max.)|Temperature (Min.)|Temperature Climatology (Max.)|Temperature Climatology (Mean)|Temperature Climatology (Min.)
1,EC,1126070,1074,PEACHLAND,1477,BC,-119.716667,49.783333,345.0,1971-03-01,2022-02-16,Daily,Precipitation Amount|Precipitation Climatology|Rainfall Amount|Snowfall Amount|Surface Snow Depth (Point)|Temperature (Max.)|Temperature (Min.)|Temperature Climatology (Max.)|Temperature Climatology (Mean)|Temperature Climatology (Min.)
1,EC,1126071,1075,PEACHLAND,1478,BC,-119.7145,49.78267,351.0,1973-07-01,2001-01-01,Daily,Precipitation Amount|Precipitation Climatology|Rainfall Amount|Snowfall Amount|Surface Snow Depth (Point)|Temperature (Max.)|Temperature (Min.)|Temperature Climatology (Max.)|Temperature Climatology (Mean)|Temperature Climatology (Min.)
1,EC,1126077,1076,PEACHLAND BRENDA MINES,1479,BC,-120.0,49.866667,1520.0,1968-04-16,2001-01-01,Daily,Precipitation Amount|Precipitation Climatology|Rainfall Amount|Snowfall Amount|Surface Snow Depth (Point)|Temperature (Max.)|Temperature (Min.)|Temperature Climatology (Max.)|Temperature Climatology (Mean)|Temperature Climatology (Min.)
1,EC,1126079,1078,PEACHLAND MINOS ROCK,1481,BC,-119.75,49.766667,610.0,1982-01-01,1982-04-30,Daily,Precipitation Amount|Rainfall Amount|Snowfall Amount|Surface Snow Depth (Point)|Temperature (Max.)|Temperature (Min.)
1,EC,1126915,1083,RUTLAND MISSION CREEK,1486,BC,-119.45,49.966667,914.0,1926-01-01,1947-10-31,Daily,Precipitation Amount|Rainfall Amount|Snowfall Amount|Temperature (Max.)|Temperature (Min.)
1,EC,1128550,1089,VERNON,1492,BC,-119.266667,50.25,422.0,1893-01-01,1960-04-14,Daily,Precipitation Amount|Rainfall Amount|Snowfall Amount|Temperature (Max.)|Temperature (Min.)
1,EC,1128551,1090,VERNON,1493,BC,-119.283333,50.233333,556.0,1971-10-01,2001-01-01,Daily,Precipitation Amount|Precipitation Climatology|Rainfall Amount|Snowfall Amount|Surface Snow Depth (Point)|Temperature (Max.)|Temperature (Min.)|Temperature Climatology (Max.)|Temperature Climatology (Mean)|Temperature Climatology (Min.)
1,EC,1128553,1091,VERNON BELLA VISTA,1494,BC,-119.3097,50.26433,427.0,1984-12-01,2015-06-30,Daily,Precipitation Amount|Precipitation Climatology|Rainfall Amount|Snowfall Amount|Surface Snow Depth (Point)|Temperature (Max.)|Temperature (Min.)|Temperature Climatology (Max.)|Temperature Climatology (Mean)|Temperature Climatology (Min.)
1,EC,1128554,1092,VERNON BX,1495,BC,-119.216667,50.283333,518.0,1960-04-15,1966-03-31,Daily,Precipitation Amount|Rainfall Amount|Snowfall Amount|Temperature (Max.)|Temperature (Min.)
1,EC,1128580,1093,VERNON COLDSTREAM RANCH,1496,BC,-119.2,50.233333,482.0,1900-04-01,2001-01-01,Daily,Precipitation Amount|Precipitation Climatology|Rainfall Amount|Snowfall Amount|Surface Snow Depth (Point)|Temperature (Max.)|Temperature (Min.)|Temperature Climatology (Max.)|Temperature Climatology (Mean)|Temperature Climatology (Min.)
1,EC,1128581,1094,VERNON CS,1497,BC,-119.2,50.216667,482.0,1991-06-01,2008-03-17,Daily,Precipitation Amount|Precipitation Climatology|Rainfall Amount|Snowfall Amount|Surface Snow Depth (Point)|Temperature (Max.)|Temperature (Min.)|Temperature Climatology (Max.)|Temperature Climatology (Mean)|Temperature Climatology (Min.)
1,EC,1128583,1095,VERNON NORTH,1498,BC,-119.2714,50.34444,512.0,1990-07-01,2020-04-13,Daily,Precipitation Amount|Precipitation Climatology|Rainfall Amount|Snowfall Amount|Surface Snow Depth (Point)|Temperature (Max.)|Temperature (Min.)|Temperature Climatology (Max.)|Temperature Climatology (Mean)|Temperature Climatology (Min.)
1,EC,1128584,1096,VERNON SILVER STAR LODGE,1499,BC,-119.0557,50.35783,1572.0,1970-07-01,2022-03-04,Daily,Precipitation Amount|Precipitation Climatology|Rainfall Amount|Snowfall Amount|Surface Snow Depth (Point)|Temperature (Max.)|Temperature (Min.)|Temperature Climatology (Max.)|Temperature Climatology (Mean)|Temperature Climatology (Min.)
1,EC,1128585,1097,VERNON SOUTHWEST,1500,BC,-119.366667,50.233333,370.0,1966-04-01,2001-01-01,Daily,Precipitation Amount|Precipitation Climatology|Rainfall Amount|Snowfall Amount|Surface Snow Depth (Point)|Temperature (Max.)|Temperature (Min.)|Temperature Climatology (Max.)|Temperature Climatology (Mean)|Temperature Climatology (Min.)
1,EC,1128758,1098,WESTBANK,1501,BC,-119.633333,49.833333,521.0,1981-12-12,2001-01-01,Daily,Precipitation Amount|Precipitation Climatology|Rainfall Amount|Snowfall Amount|Surface Snow Depth (Point)|Temperature (Max.)|Temperature (Min.)|Temperature Climatology (Max.)|Temperature Climatology (Mean)|Temperature Climatology (Min.)
1,EC,1128759,1099,WESTBANK IRRIGATION,1502,BC,-119.633333,49.833333,421.0,1983-08-01,2001-01-01,Daily,Precipitation Amount|Precipitation Climatology|Rainfall Amount|Snowfall Amount|Surface Snow Depth (Point)|Temperature (Max.)|Temperature (Min.)|Temperature Climatology (Max.)|Temperature Climatology (Mean)|Temperature Climatology (Min.)
1,EC,1128958,1100,WINFIELD,1503,BC,-119.4163,50.03667,502.9,1971-03-01,2016-06-12,Daily,Precipitation Amount|Precipitation Climatology|Rainfall Amount|Snowfall Amount|Surface Snow Depth (Point)|Temperature (Max.)|Temperature (Min.)|Temperature Climatology (Max.)|Temperature Climatology (Mean)|Temperature Climatology (Min.)
1,EC,1128983,1101,WOODS LAKE,1504,BC,-119.45,50.05,405.0,1915-06-01,1939-01-31,Daily,Precipitation Amount|Rainfall Amount|Snowfall Amount|Temperature (Max.)|Temperature (Min.)
1,EC,112C991,1102,KELOWNA N GLENMORE,1505,BC,-119.433333,49.933333,451.0,1984-12-01,1986-09-30,Daily,Precipitation Amount|Rainfall Amount|Snowfall Amount|Surface Snow Depth (Point)|Temperature (Max.)|Temperature (Min.)
1,EC,112E700,1103,OKANAGAN CENTRE CAMP RD,1506,BC,-119.433333,50.05,445.0,1984-08-01,2001-01-01,Daily,Precipitation Amount|Precipitation Climatology|Rainfall Amount|Snowfall Amount|Surface Snow Depth (Point)|Temperature (Max.)|Temperature (Min.)|Temperature Climatology (Max.)|Temperature Climatology (Mean)|Temperature Climatology (Min.)
1,EC,112HEHD,1106,VERNON SOUTH,1509,BC,-119.266667,50.25,381.0,1974-05-01,2001-01-01,Daily,Precipitation Amount|Precipitation Climatology|Rainfall Amount|Snowfall Amount|Temperature (Max.)|Temperature (Min.)|Temperature Climatology (Max.)|Temperature Climatology (Mean)|Temperature Climatology (Min.)
1,EC,112K653,1107,ELKHART LODGE HIGHWAY 97,1510,BC,-120.35,49.933333,1615.0,1992-09-01,2001-01-01,Daily,Precipitation Amount|Precipitation Climatology|Rainfall Amount|Snowfall Amount|Surface Snow Depth (Point)|Temperature (Max.)|Temperature (Min.)|Temperature Climatology (Max.)|Temperature Climatology (Mean)|Temperature Climatology (Min.)
1,EC,1130874,1109,BIG WHITE,1512,BC,-118.933333,49.733333,1841.0,1981-02-01,2001-01-01,Daily,Precipitation Amount|Precipitation Climatology|Rainfall Amount|Snowfall Amount|Surface Snow Depth (Point)|Temperature (Max.)|Temperature (Min.)|Temperature Climatology (Max.)|Temperature Climatology (Mean)|Temperature Climatology (Min.)
1,EC,1130875,1110,BIG WHITE MTN LODGE,1513,BC,-118.933333,49.733333,1844.0,1965-03-01,1968-06-30,Daily,Precipitation Amount|Rainfall Amount|Snowfall Amount|Temperature (Max.)|Temperature (Min.)
1,EC,1142640,1138,EDGEWOOD,1541,BC,-118.133333,49.833333,428.0,1951-11-01,1958-08-23,Daily,Precipitation Amount|Rainfall Amount|Snowfall Amount|Temperature (Max.)|Temperature (Min.)
1,EC,1142820,1139,FAUQUIER,1542,BC,-118.066667,49.866667,490.0,1913-02-01,2015-06-30,Daily,Precipitation Amount|Precipitation Climatology|Rainfall Amount|Snowfall Amount|Surface Snow Depth (Point)|Temperature (Max.)|Temperature (Min.)|Temperature Climatology (Max.)|Temperature Climatology (Mean)|Temperature Climatology (Min.)
1,EC,1145297,1149,NAKUSP CS,1552,BC,-117.8128,50.26639,512.1,1991-01-01,2017-12-31,Daily,Precipitation Amount|Precipitation Climatology|Rainfall Amount|Snowfall Amount|Surface Snow Depth (Point)|Temperature (Max.)|Temperature (Min.)|Temperature Climatology (Max.)|Temperature Climatology (Mean)|Temperature Climatology (Min.)
1,EC,1145300,1150,NAKUSP,1553,BC,-117.8,50.25,457.0,1912-03-01,2001-01-01,Daily,Precipitation Amount|Precipitation Climatology|Rainfall Amount|Snowfall Amount|Surface Snow Depth (Point)|Temperature (Max.)|Temperature (Min.)|Temperature Climatology (Max.)|Temperature Climatology (Mean)|Temperature Climatology (Min.)
1,EC,1145303,1151,NAKUSP GLENBANK,1554,BC,-117.783333,50.266667,585.0,1985-12-01,2001-01-01,Daily,Precipitation Amount|Precipitation Climatology|Rainfall Amount|Snowfall Amount|Surface Snow Depth (Point)|Temperature (Max.)|Temperature (Min.)|Temperature Climatology (Max.)|Temperature Climatology (Mean)|Temperature Climatology (Min.)
1,EC,1145419,1152,NEEDLES WHATSHAN BCHPA,1555,BC,-118.083333,49.9,463.0,1971-05-01,1972-11-30,Daily,Precipitation Amount|Rainfall Amount|Snowfall Amount|Temperature (Max.)|Temperature (Min.)
1,EC,1145460,1158,NEW DENVER,1561,BC,-117.3719,49.99028,570.0,1924-01-01,2022-03-01,Daily,Precipitation Amount|Precipitation Climatology|Rainfall Amount|Snowfall Amount|Surface Snow Depth (Point)|Temperature (Max.)|Temperature (Min.)|Temperature Climatology (Max.)|Temperature Climatology (Mean)|Temperature Climatology (Min.)
1,EC,1148262,1169,TROUT LAKE,1572,BC,-117.5,50.333333,718.0,1973-06-01,2001-01-01,Daily,Precipitation Amount|Precipitation Climatology|Rainfall Amount|Snowfall Amount|Temperature (Max.)|Temperature (Min.)|Temperature Climatology (Max.)|Temperature Climatology (Mean)|Temperature Climatology (Min.)
1,EC,1161506,1249,CHERRYVILLE,1652,BC,-118.583333,50.233333,665.0,1959-04-01,1961-08-31,Daily,Precipitation Amount|Rainfall Amount|Snowfall Amount|Temperature (Max.)|Temperature (Min.)
1,EC,1164729,1285,LUMBY,1688,BC,-118.9557,50.23617,500.0,1959-03-24,2010-03-31,Daily,Precipitation Amount|Precipitation Climatology|Rainfall Amount|Snowfall Amount|Surface Snow Depth (Point)|Temperature (Max.)|Temperature (Min.)|Temperature Climatology (Max.)|Temperature Climatology (Mean)|Temperature Climatology (Min.)
1,EC,1164730,1286,LUMBY SIGALET RD,1689,BC,-118.766667,50.366667,560.0,1970-11-01,2001-01-01,Daily,Precipitation Amount|Precipitation Climatology|Rainfall Amount|Snowfall Amount|Surface Snow Depth (Point)|Temperature (Max.)|Temperature (Min.)|Temperature Climatology (Max.)|Temperature Climatology (Mean)|Temperature Climatology (Min.)
1,EC,1166760,1300,RICHLAND,1703,BC,-118.5,50.216667,716.0,1962-06-01,2001-01-01,Daily,Precipitation Amount|Precipitation Climatology|Rainfall Amount|Snowfall Amount|Temperature (Max.)|Temperature (Min.)|Temperature Climatology (Max.)|Temperature Climatology (Mean)|Temperature Climatology (Min.)
1,EC,1167260,1311,SHUSWAP FALLS,1714,BC,-118.816667,50.3,427.0,1930-01-01,2001-01-01,Daily,Precipitation Amount|Precipitation Climatology|Rainfall Amount|Snowfall Amount|Temperature (Max.)|Temperature (Min.)|Temperature Climatology (Max.)|Temperature Climatology (Mean)|Temperature Climatology (Min.)
1,EC,1167778,1319,SUGAR LAKE,1722,BC,-118.533333,50.333333,610.0,1957-12-01,1964-11-23,Daily,Precipitation Amount|Rainfall Amount|Snowfall Amount|Temperature (Max.)|Temperature (Min.)
1,EC,1168A5H,1329,THIMBLE RANCH,1732,BC,-118.583333,50.233333,425.0,1975-08-20,2001-01-01,Daily,Precipitation Amount|Precipitation Climatology|Rainfall Amount|Snowfall Amount|Temperature (Max.)|Temperature (Min.)|Temperature Climatology (Max.)|Temperature Climatology (Mean)|Temperature Climatology (Min.)
12,FLNRO-WMB,273,1826,ZZ HAMILTON L/O,2229,BC,-120.4,50.1,15.0,1970-05-25,2000-10-01,Daily,Precipitation Amount|Precipitation Climatology|Relative Humidity (Mean)|Temperature (Point)|Wind Direction (Mean)|Wind Speed (Mean)
12,FLNRO-WMB,282,1832,ZZ DILLARD,2235,BC,-120.4217,49.7667,1341.0,1990-06-10,2000-10-01,Hourly,Precipitation Amount|Precipitation Climatology|Relative Humidity (Mean)|Temperature (Point)|Wind Direction (Mean)|Wind Speed (Mean)
12,FLNRO-WMB,283,1833,BRENDA MINES,2236,BC,-119.9933,49.8683,1493.0,1989-06-14,2024-01-14,Hourly,Dew Point Temperature|Precipitation Amount|Precipitation Climatology|Rainfall 1hr|Rainfall 24hr|Relative Humidity|Relative Humidity (Mean)|Temperature|Temperature (Point)|Wind Direction|Wind Direction (Mean)|Wind Speed|Wind Speed (Mean)
12,FLNRO-WMB,285,1835,ZZ LUMBY R/S,2238,BC,-119.0,50.2,0.0,1977-05-01,2000-10-01,Daily,Precipitation Amount|Precipitation Climatology|Relative Humidity (Mean)|Temperature (Point)|Wind Direction (Mean)|Wind Speed (Mean)
12,FLNRO-WMB,288,1838,ZZ VERNON  R/S,2241,BC,-119.3,50.3,0.0,1978-05-01,2000-10-01,Daily,Precipitation Amount|Precipitation Climatology|Relative Humidity (Mean)|Temperature (Point)|Wind Direction (Mean)|Wind Speed (Mean)
12,FLNRO-WMB,289,1839,ZZ KAL LAKE,2242,BC,-119.3,50.2,4.0,1986-04-01,1990-07-10,Daily,Precipitation Amount|Relative Humidity (Mean)|Temperature (Point)|Wind Direction (Mean)|Wind Speed (Mean)
12,FLNRO-WMB,290,1840,ZZ SPRUCE,2243,BC,-119.9967,50.4133,1462.0,1988-08-28,2000-11-01,Hourly,Precipitation Amount|Precipitation Climatology|Relative Humidity (Mean)|Temperature (Point)|Wind Direction (Mean)|Wind Speed (Mean)
12,FLNRO-WMB,291,1841,GLIMPSE,2244,BC,-120.2883,50.27,1311.0,1990-05-13,2024-01-14,Hourly,Dew Point Temperature|Precipitation Amount|Precipitation Climatology|Rainfall 1hr|Rainfall 24hr|Relative Humidity|Relative Humidity (Mean)|Snow Depth|Temperature|Temperature (Point)|Wind Direction|Wind Direction (Mean)|Wind Speed|Wind Speed (Mean)
12,FLNRO-WMB,298,1848,FINTRY,2251,BC,-119.48,50.2067,670.0,1990-07-13,2024-01-14,Hourly,Dew Point Temperature|Precipitation Amount|Precipitation Climatology|Rainfall 1hr|Rainfall 24hr|Relative Humidity|Relative Humidity (Mean)|Temperature|Temperature (Point)|Wind Direction|Wind Direction (Mean)|Wind Speed|Wind Speed (Mean)
12,FLNRO-WMB,330,1878,ZZ ABERDEEN,2281,BC,-118.9833,50.1233,1402.0,1991-04-21,2000-11-01,Hourly,Precipitation Amount|Precipitation Climatology|Relative Humidity (Mean)|Temperature (Point)|Wind Direction (Mean)|Wind Speed (Mean)
12,FLNRO-WMB,336,1884,ZZ IDA BELL LK II,2287,BC,-119.1767,49.7367,1250.0,1987-07-31,2004-08-05,Hourly,Precipitation Amount|Precipitation Climatology|Relative Humidity (Mean)|Temperature (Point)|Wind Direction (Mean)|Wind Speed (Mean)
12,FLNRO-WMB,341,1887,ZZ KAL LK. II,2290,BC,-119.2767,50.2367,457.0,1987-07-29,2001-01-01,Hourly,Precipitation Amount|Precipitation Climatology|Relative Humidity (Mean)|Temperature (Point)|Wind Direction (Mean)|Wind Speed (Mean)
12,FLNRO-WMB,359,1904,ZZ MABLE  LK.,2307,BC,-118.7,50.4,4.0,1984-05-01,2000-10-01,Daily,Precipitation Amount|Precipitation Climatology|Relative Humidity (Mean)|Temperature (Point)|Wind Direction (Mean)|Wind Speed (Mean)
12,FLNRO-WMB,362,1907,MABEL LK II,2310,BC,-118.7733,50.3517,488.0,1904-04-23,2024-01-14,Hourly,Dew Point Temperature|Precipitation Amount|Precipitation Climatology|Rainfall 1hr|Rainfall 24hr|Relative Humidity|Relative Humidity (Mean)|Snow Depth|Temperature|Temperature (Point)|Wind Direction|Wind Direction (Mean)|Wind Speed|Wind Speed (Mean)
12,FLNRO-WMB,377,1920,ZZ NAKUSP RS,2323,BC,-117.7763,50.2525,651.0,1989-04-20,2003-02-20,Hourly,Precipitation Amount|Precipitation Climatology|Relative Humidity (Mean)|Temperature (Point)|Wind Direction (Mean)|Wind Speed (Mean)
12,FLNRO-WMB,381,1924,ZZ FAUQUIER,2327,BC,-117.9,50.3,0.0,1979-06-11,2000-10-01,Daily,Precipitation Amount|Precipitation Climatology|Relative Humidity (Mean)|Temperature (Point)|Wind Direction (Mean)|Wind Speed (Mean)
12,FLNRO-WMB,383,1926,FALLS CK,2329,BC,-117.8799,50.383,790.0,2002-10-01,2024-01-14,Hourly,Dew Point Temperature|Precipitation Amount|Rainfall 1hr|Rainfall 24hr|Relative Humidity|Relative Humidity (Mean)|Temperature|Temperature (Point)|Wind Direction|Wind Direction (Mean)|Wind Speed|Wind Speed (Mean)
12,FLNRO-WMB,386,1929,ZZ KETTLE,2332,BC,-118.5,49.8,12.0,1986-05-12,2000-08-01,Daily,Precipitation Amount|Precipitation Climatology|Relative Humidity (Mean)|Temperature (Point)|Wind Direction (Mean)|Wind Speed (Mean)
12,FLNRO-WMB,388,1931,KETTLE II,2334,BC,-118.625,49.96,1341.0,1987-08-09,2024-01-14,Hourly,Dew Point Temperature|Precipitation Amount|Precipitation Climatology|Rainfall 1hr|Rainfall 24hr|Relative Humidity|Relative Humidity (Mean)|Temperature|Temperature (Point)|Wind Direction|Wind Direction (Mean)|Wind Speed|Wind Speed (Mean)
12,FLNRO-WMB,405,1947,ZZ EDGEWOOD,2350,BC,-118.2,49.8,15.0,1992-06-15,2000-11-01,Hourly,Precipitation Amount|Precipitation Climatology|Relative Humidity (Mean)|Temperature (Point)|Wind Direction (Mean)|Wind Speed (Mean)
12,FLNRO-WMB,406,1948,SLOCAN,2351,BC,-117.44,49.7847,1230.0,1991-10-13,2024-01-14,Hourly,Dew Point Temperature|Precipitation Amount|Precipitation Climatology|Rainfall 1hr|Rainfall 24hr|Relative Humidity|Relative Humidity (Mean)|Snow Depth|Temperature|Temperature (Point)|Wind Direction|Wind Direction (Mean)|Wind Speed|Wind Speed (Mean)
12,FLNRO-WMB,742,2190,ZZ LAMBLY 2,2593,BC,-119.7076,49.9596,1150.0,2001-06-26,2001-10-17,Hourly,Precipitation Amount|Relative Humidity (Mean)|Temperature (Point)|Wind Direction (Mean)|Wind Speed (Mean)
12,FLNRO-WMB,743,2191,ZZ LAMBLY 3,2594,BC,-119.7096,49.959,1150.0,2001-06-26,2001-10-17,Hourly,Precipitation Amount|Relative Humidity (Mean)|Temperature (Point)|Wind Direction (Mean)|Wind Speed (Mean)
12,FLNRO-WMB,745,2193,ZZ LAMBLY[DEMO2000],2596,BC,-119.717,49.967,1100.0,2000-06-09,2002-10-22,Hourly,Precipitation Amount|Precipitation Climatology|Relative Humidity (Mean)|Temperature (Point)|Wind Direction (Mean)|Wind Speed (Mean)
12,FLNRO-WMB,747,2195,ZZ SOUTH FORK,2598,BC,-119.57,50.2055,1100.0,2002-06-24,2002-10-22,Hourly,Precipitation Amount|Relative Humidity (Mean)|Temperature (Point)|Wind Direction (Mean)|Wind Speed (Mean)
12,FLNRO-WMB,853,2277,HARROW,2680,BC,-117.9894,50.0237,2000.0,2003-08-20,2003-09-26,Hourly,Precipitation Amount|Relative Humidity (Mean)|Temperature (Point)|Wind Direction (Mean)|Wind Speed (Mean)
12,FLNRO-WMB,854,2278,ZZ SITKUM CREEK,2681,BC,-118.4234,50.3926,1200.0,2003-07-27,2003-09-03,Hourly,Precipitation Amount|Relative Humidity (Mean)|Temperature (Point)|Wind Direction (Mean)|Wind Speed (Mean)
12,FLNRO-WMB,875,2291,ZZ THUNDER MOUNTAIN,2694,BC,-119.1242,49.7672,1300.0,2004-08-01,2004-08-05,Hourly,Precipitation Amount|Relative Humidity (Mean)|Temperature (Point)|Wind Direction (Mean)|Wind Speed (Mean)
12,FLNRO-WMB,876,2292,IDA BELL III,2695,BC,-119.1242,49.7672,1300.0,2004-08-01,2024-01-14,Hourly,Dew Point Temperature|Precipitation Amount|Rainfall 1hr|Rainfall 24hr|Relative Humidity|Relative Humidity (Mean)|Temperature|Temperature (Point)|Wind Direction|Wind Direction (Mean)|Wind Speed|Wind Speed (Mean)
12,FLNRO-WMB,936,2316,NEW DENVER,2719,BC,-117.3749,49.984,549.0,2006-05-26,2006-05-31,Hourly,Precipitation Amount|Relative Humidity (Mean)|Temperature (Point)|Wind Direction (Mean)|Wind Speed (Mean)
12,FLNRO-WMB,982,2334,ZZ SPRINGER,2737,BC,-117.4177778,49.75861111,1790.0,2007-08-01,2007-08-12,Hourly,Precipitation Amount|Relative Humidity (Mean)|Temperature (Point)|Wind Direction (Mean)|Wind Speed (Mean)
12,FLNRO-WMB,989,2335,ZZ NEEDLES 2,2738,BC,-118.0502778,49.94277778,746.0,2007-08-04,2007-08-20,Hourly,Precipitation Amount|Relative Humidity (Mean)|Temperature (Point)|Wind Direction (Mean)|Wind Speed (Mean)
12,FLNRO-WMB,1019,2345,ZZ SIWASH,2748,BC,-120.4211111,49.77583333,1483.0,2008-05-29,2008-10-21,Hourly,Precipitation Amount|Relative Humidity (Mean)|Temperature (Point)|Wind Direction (Mean)|Wind Speed (Mean)
12,FLNRO-WMB,1020,2346,ZZ KODIAK,2749,BC,-119.6602778,50.17972222,1601.0,2008-06-05,2008-10-22,Hourly,Precipitation Amount|Relative Humidity (Mean)|Temperature (Point)|Wind Direction (Mean)|Wind Speed (Mean)
12,FLNRO-WMB,1046,2363,ZZ SHORT CREEK,2766,BC,-119.7955556,50.19777778,1814.0,2009-07-22,2009-08-20,Hourly,Precipitation Amount|Relative Humidity (Mean)|Temperature (Point)|Wind Direction (Mean)|Wind Speed (Mean)
5,BCH,BAR,2432,Barnes Ck,2835,BC,-118.3492167,50.06601667,1620.0,1960-01-02,2024-01-09,Daily,Precipitation Amount|Precipitation Climatology|Snow Water Equivalent|Temperature (Max.)|Temperature (Min.)|Temperature (Point)|Temperature Climatology (Max.)|Temperature Climatology (Mean)|Temperature Climatology (Min.)
5,BCH,BMN,2436,Brenda Mines,2839,BC,-119.9888889,49.86805556,1460.0,1993-01-27,2024-01-09,Daily,Precipitation Amount|Precipitation Climatology|Snow Water Equivalent|Surface Snow Depth (Point)|Temperature (Max.)|Temperature (Min.)|Temperature (Point)|Temperature Climatology (Max.)|Temperature Climatology (Mean)|Temperature Climatology (Min.)
5,BCH,SGL,2502,Sugar Lake Res. @ Outlet,2905,BC,-118.53,50.35,675.0,1999-01-03,2024-01-09,Daily,Precipitation Amount|Precipitation Climatology|Temperature (Max.)|Temperature (Min.)|Temperature (Point)|Temperature Climatology (Max.)|Temperature Climatology (Mean)|Temperature Climatology (Min.)
5,BCH,SLK,2503,St. Leon Ck,2906,BC,-117.7012,50.43416667,1800.0,1993-01-02,2024-01-09,Daily,Precipitation Amount|Precipitation Climatology|Snow Water Equivalent|Temperature (Max.)|Temperature (Min.)|Temperature (Point)|Temperature Climatology (Max.)|Temperature Climatology (Mean)|Temperature Climatology (Min.)
14,ENV-ASP,2B06P,2545,Barnes Creek,2948,BC,-118.35,50.0667,1620.0,1992-10-01,2020-10-01,Daily,Precipitation 1hr|Precipitation Amount|Precipitation Climatology|Snow Water Equivalent|Snowfall Amount|Temperature (Max.)|Temperature (Mean)|Temperature (Min.)|Temperature Climatology (Max.)|Temperature Climatology (Mean)|Temperature Climatology (Min.)
14,ENV-ASP,2B08P,2546,St. Leon Creek,2949,BC,-117.7,50.4333,1800.0,1992-11-14,2020-10-01,Daily,Precipitation 1hr|Precipitation Amount|Precipitation Climatology|Snow Water Equivalent|Snowfall Amount|Temperature (Max.)|Temperature (Mean)|Temperature (Min.)|Temperature Climatology (Max.)|Temperature Climatology (Mean)|Temperature Climatology (Min.)
14,ENV-ASP,2F05P,2554,Mission Creek,2957,BC,-118.95,49.95,1780.0,1969-10-20,2024-01-14,Daily,Cumulative Precipitation|Precipitation 1hr|Precipitation 24hr|Precipitation Amount|Precipitation Climatology|Snow Depth|Snow Water Equivalent|Snowfall Amount|Surface Snow Depth (Point)|Temperature (Max.)|Temperature (Mean)|Temperature (Min.)|Temperature Climatology (Max.)|Temperature Climatology (Mean)|Temperature Climatology (Min.)
14,ENV-ASP,2F18P,2555,Brenda Mine,2958,BC,-120.0,49.8833,1460.0,1992-10-01,2020-10-01,Daily,Precipitation 1hr|Precipitation Amount|Precipitation Climatology|Snow Water Equivalent|Snowfall Amount|Temperature (Max.)|Temperature (Mean)|Temperature (Min.)|Temperature Climatology (Max.)|Temperature Climatology (Mean)|Temperature Climatology (Min.)
9,ENV-AQN,E249492,2619,Vernon Science Centre,3022,BC,-119.2702778,50.26083333,385.0,2003-11-26,2023-12-24,Hourly,Relative Humidity|Relative Humidity (Point)|Temperature (Mean)|Wind Direction (Point)|Wind Speed (Point)
9,ENV-AQN,M112070,2623,Kelowna College,3026,BC,-119.475,49.86111111,300.0,1994-10-28,2009-07-01,Hourly,Relative Humidity (Point)|Temperature (Mean)|Wind Direction (Point)|Wind Speed (Point)
2,MoTIe,23097,2690,Kalamalka Lookout,3433,BC,-119.30607,50.2112,570.0,1998-12-30,2024-01-14,Hourly,Air Pressure|Air Pressure (Point)|Dew Point Temperature|Dew Point Temperature (Mean)|Precipitation (Cumulative)|Precipitation 24hr|Precipitation Amount|Precipitation Climatology|Rainfall Amount|Relative Humidity|Relative Humidity (Mean)|Sea Level Pressure|Snow Depth|Snowfall|Snowfall Amount|Surface Snow Depth (Point)|Temperature (Max.)|Temperature (Mean)|Temperature (Min.)|Temperature (Point)|Temperature Climatology (Max.)|Temperature Climatology (Mean)|Temperature Climatology (Min.)|Wind Direction|Wind Direction (Mean)|Wind Direction (Point)|Wind Direction (Std Dev)|Wind Gust|Wind Speed|Wind Speed (Max.)|Wind Speed (Mean)|Wind Speed (Point)
3,MoTIm,23105,2691,Cherryville,3434,BC,-118.59,50.23111,670.0,1988-11-14,2004-03-27,Semi-daily,Precipitation Amount|Rainfall Amount|Relative Humidity (Point)|Snowfall Amount|Surface Snow Depth (Point)|Temperature (Max.)|Temperature (Min.)|Temperature (Point)
3,MoTIm,25003,2701,Elkhart Lake,3444,BC,-120.29925,49.8649,1550.0,1986-11-04,1994-04-30,Semi-daily,Precipitation Amount|Rainfall Amount|Relative Humidity (Point)|Snowfall Amount|Surface Snow Depth (Point)|Temperature (Max.)|Temperature (Min.)|Temperature (Point)|Wind Speed (Point)
3,MoTIm,29005,2738,Westbank,3481,BC,-119.62428,49.82914,405.0,1988-11-07,1994-01-10,Semi-daily,Precipitation Amount|Rainfall Amount|Relative Humidity (Point)|Snowfall Amount|Surface Snow Depth (Point)|Temperature (Max.)|Temperature (Min.)|Temperature (Point)
2,MoTIe,29092,2739,Pennask Summit,3482,BC,-120.01336,49.90672,1700.0,1998-11-10,2024-01-13,Hourly,Air Pressure|Air Pressure (Point)|Dew Point Temperature|Dew Point Temperature (Mean)|Precipitation (Cumulative)|Precipitation 24hr|Precipitation Amount|Precipitation Climatology|Rainfall Amount|Relative Humidity|Relative Humidity (Mean)|Sea Level Pressure|Snow Depth|Snowfall|Snowfall Amount|Surface Snow Depth (Point)|Temperature (Max.)|Temperature (Mean)|Temperature (Min.)|Temperature (Point)|Temperature Climatology (Max.)|Temperature Climatology (Mean)|Temperature Climatology (Min.)|Wind Direction|Wind Direction (Mean)|Wind Direction (Point)|Wind Direction (Std Dev)|Wind Gust|Wind Speed|Wind Speed (Max.)|Wind Speed (Mean)|Wind Speed (Point)
3,MoTIm,33009,2759,McCulloch Junction,3502,BC,-119.12639,49.75778,1220.0,1977-11-01,2001-04-15,Semi-daily,Rainfall Amount|Relative Humidity (Point)|Snowfall Amount|Surface Snow Depth (Point)|Temperature (Max.)|Temperature (Min.)|Temperature (Point)|Wind Direction (Point)|Wind Speed (Point)
2,MoTIe,33099,2761,McCulloch,3504,BC,-119.12639,49.75778,1220.0,2001-11-21,2024-01-14,Hourly,Air Pressure|Air Pressure (Point)|Dew Point Temperature|Dew Point Temperature (Mean)|Precipitation (Cumulative)|Precipitation 24hr|Precipitation Amount|Rainfall Amount|Relative Humidity|Relative Humidity (Mean)|Sea Level Pressure|Snow Depth|Snowfall|Snowfall Amount|Surface Snow Depth (Point)|Temperature (Max.)|Temperature (Mean)|Temperature (Min.)|Temperature (Point)|Wind Direction|Wind Direction (Mean)|Wind Direction (Point)|Wind Direction (Std Dev)|Wind Gust|Wind Speed|Wind Speed (Max.)|Wind Speed (Mean)|Wind Speed (Point)
3,MoTIm,34003,2766,Monashee,3509,BC,-118.37876,50.0357,1200.0,1975-11-03,1998-01-18,Semi-daily,Precipitation Amount|Rainfall Amount|Relative Humidity (Point)|Snowfall Amount|Surface Snow Depth (Point)|Temperature (Max.)|Temperature (Min.)|Temperature (Point)
3,MoTIm,34005,2767,Edgewood,3510,BC,-118.14406,49.7836,460.0,1975-12-01,1988-04-28,Semi-daily,Rainfall Amount|Snowfall Amount|Surface Snow Depth (Point)|Temperature (Max.)|Temperature (Min.)|Temperature (Point)
3,MoTIm,34101,2768,New Denver,3511,BC,-117.35833,49.995,640.0,1976-04-27,2004-03-28,Semi-daily,Precipitation Amount|Rainfall Amount|Relative Humidity (Point)|Snowfall Amount|Surface Snow Depth (Point)|Temperature (Max.)|Temperature (Min.)|Temperature (Point)|Wind Speed (Point)
3,MoTIm,34106,2769,Fish Lake,3512,BC,-117.17944,50.04639,1070.0,1978-11-01,2002-03-23,Semi-daily,Precipitation Amount|Rainfall Amount|Relative Humidity (Point)|Snowfall Amount|Surface Snow Depth (Point)|Temperature (Max.)|Temperature (Min.)|Temperature (Point)|Wind Speed (Point)
3,MoTIm,34108,2770,London Ridge (Manual),3513,BC,-117.23481,50.04589,2070.0,1980-01-23,1988-04-30,Semi-daily,Precipitation Amount|Relative Humidity (Point)|Temperature (Max.)|Temperature (Min.)|Temperature (Point)
2,MoTIe,34126,2771,Fish Lake,3514,BC,-117.17914,50.04631,1080.0,1999-11-17,2024-01-14,Hourly,Air Pressure|Air Pressure (Point)|Dew Point Temperature|Dew Point Temperature (Mean)|Precipitation (Cumulative)|Precipitation 24hr|Precipitation Amount|Precipitation Climatology|Rainfall Amount|Relative Humidity|Relative Humidity (Mean)|Sea Level Pressure|Snow Depth|Snowfall|Snowfall Amount|Surface Snow Depth (Point)|Temperature (Max.)|Temperature (Mean)|Temperature (Min.)|Temperature (Point)|Temperature Climatology (Max.)|Temperature Climatology (Mean)|Temperature Climatology (Min.)|Wind Direction|Wind Direction (Mean)|Wind Direction (Point)|Wind Direction (Std Dev)|Wind Gust|Wind Speed|Wind Speed (Max.)|Wind Speed (Mean)|Wind Speed (Point)
2,MoTIe,34128,2772,London Ridge Low,3515,BC,-117.23481,50.04589,2070.0,1990-09-19,2024-01-12,Hourly,Air Pressure (Point)|Dew Point Temperature|Dew Point Temperature (Mean)|Precipitation (Cumulative)|Precipitation 24hr|Precipitation Amount|Precipitation Climatology|Relative Humidity|Relative Humidity (Mean)|Snow Depth|Snowfall|Snowfall Amount|Surface Snow Depth (Point)|Temperature (Max.)|Temperature (Mean)|Temperature (Min.)|Temperature (Point)|Temperature Climatology (Max.)|Temperature Climatology (Mean)|Temperature Climatology (Min.)|Wind Direction|Wind Direction (Mean)|Wind Direction (Point)|Wind Direction (Std Dev)|Wind Gust|Wind Speed|Wind Speed (Max.)|Wind Speed (Mean)|Wind Speed (Point)
2,MoTIe,34129,2773,London Ridge High,3516,BC,-117.22867,50.04931,2160.0,1990-09-19,2011-04-05,Hourly,Air Pressure (Point)|Dew Point Temperature (Mean)|Precipitation (Cumulative)|Precipitation Amount|Relative Humidity (Mean)|Snowfall Amount|Surface Snow Depth (Point)|Temperature (Max.)|Temperature (Min.)|Temperature (Point)|Temperature Climatology (Max.)|Temperature Climatology (Mean)|Temperature Climatology (Min.)|Wind Direction (Mean)|Wind Direction (Point)|Wind Direction (Std Dev)|Wind Speed (Max.)|Wind Speed (Mean)|Wind Speed (Point)
3,MoTIm,34507,2776,Nakusp,3519,BC,-117.81068,50.24857,460.0,1977-11-24,1994-04-30,Semi-daily,Precipitation Amount|Rainfall Amount|Relative Humidity (Point)|Snowfall Amount|Surface Snow Depth (Point)|Temperature (Max.)|Temperature (Min.)|Temperature (Point)
2,MoTIe,34791,2779,Summit Lake,3522,BC,-117.5925,50.1475,780.0,2005-01-27,2024-01-14,Hourly,Air Pressure|Air Pressure (Point)|Dew Point Temperature|Dew Point Temperature (Mean)|Precipitation (Cumulative)|Precipitation 24hr|Precipitation Amount|Rainfall Amount|Relative Humidity|Relative Humidity (Mean)|Sea Level Pressure|Snow Depth|Snowfall|Snowfall Amount|Surface Snow Depth (Point)|Temperature (Max.)|Temperature (Mean)|Temperature (Min.)|Temperature (Point)|Wind Direction|Wind Direction (Mean)|Wind Direction (Point)|Wind Direction (Std Dev)|Wind Gust|Wind Speed|Wind Speed (Max.)|Wind Speed (Mean)|Wind Speed (Point)
1,EC,1123939,3256,KELOWNA,4095,BC,-119.377778,49.957222,433.0,2009-09-03,2013-01-14,Unspecified,Precipitation Amount|Temperature (Max.)|Temperature (Min.)
1,EC,1128582,3261,VERNON AUTO,4100,BC,-119.1935556,50.22308056,482.0,2005-01-02,2017-12-31,Unspecified,Precipitation Amount|Temperature (Max.)|Temperature (Min.)
17,ARDA,112008,4824,CASERSO,6504,BC,-119.443055555556,49.8444444444444,396.0,1975-05-15,1975-09-18,Daily,Temperature (Max.)|Temperature (Min.)
17,ARDA,112009,4825,FITZGERALD,6505,BC,-119.4,49.8555555555556,491.0,1975-03-10,1975-09-18,Daily,Temperature (Max.)|Temperature (Min.)
17,ARDA,112021,4837,HUME,6517,BC,-119.409722222222,49.9263888888889,427.0,1975-03-20,1975-09-17,Daily,Temperature (Max.)|Temperature (Min.)
17,ARDA,112022,4838,LOWER GLENMORE,6518,BC,-119.4375,49.9152777777778,402.0,1975-03-25,1975-09-16,Daily,Temperature (Max.)|Temperature (Min.)
17,ARDA,112023,4839,MIDDLE GLENMORE,6519,BC,-119.436111111111,49.9138888888889,418.0,1975-03-25,1975-09-17,Daily,Temperature (Max.)|Temperature (Min.)
17,ARDA,112024,4840,ROSS,6520,BC,-119.419444444444,49.8625,427.0,1975-03-10,1975-09-18,Daily,Temperature (Max.)|Temperature (Min.)
17,ARDA,112025,4841,SPOOR,6521,BC,-119.236111111111,50.2958333333333,521.0,1975-06-24,1975-08-26,Daily,Temperature (Max.)|Temperature (Min.)
17,ARDA,112026,4842,STUART,6522,BC,-119.430555555556,49.8375,503.0,1975-03-10,1975-09-18,Daily,Temperature (Max.)|Temperature (Min.)
17,ARDA,112031,4847,KETCHEN,6527,BC,-120.563333333333,49.7391666666667,1340.0,1971-04-01,1972-10-30,Daily,Precipitation (Cumulative)|Surface Snow Depth (Point)|Temperature (Max.)|Temperature (Min.)
17,ARDA,112038,4854,TELLMAN,6534,BC,-119.554166666667,49.8736111111111,483.0,1975-03-10,1975-09-17,Daily,Temperature (Max.)|Temperature (Min.)
17,ARDA,112039,4855,UPPER GLENMORE,6535,BC,-119.433333333333,49.9125,437.0,1975-03-25,1975-09-16,Daily,Temperature (Max.)|Temperature (Min.)
17,ARDA,112041,4857,CEDAR CREEK,6537,BC,-119.531944444444,49.8083333333333,389.0,1989-07-05,1991-02-28,Daily,Temperature (Max.)|Temperature (Min.)
17,ARDA,112046,4862,OSPREY LK ASB,6542,BC,-120.233333333333,49.7158333333333,1098.0,1971-04-04,1972-10-30,Daily,Precipitation (Cumulative)|Surface Snow Depth (Point)|Temperature (Max.)|Temperature (Min.)
17,ARDA,112047,4863,TSUH,6543,BC,-120.166666666667,49.72,1082.0,1971-05-27,1972-08-28,Irregular,Precipitation (Cumulative)|Surface Snow Depth (Point)
17,ARDA,112096,4910,MANHARDT,6590,BC,-119.55,49.85,381.0,1978-04-01,1989-01-27,Daily,Surface Snow Depth (Point)|Temperature (Max.)|Temperature (Min.)
17,ARDA,112098,4912,GEEN,6592,BC,-119.490277777778,49.8125,400.0,1979-01-10,1991-03-04,Daily,Temperature (Max.)|Temperature (Min.)
17,ARDA,112103,4917,BELGO,6597,BC,-119.386666666667,49.8713888888889,479.0,1989-02-02,1991-03-04,Daily,Temperature (Max.)|Temperature (Min.)
17,ARDA,112104,4918,DAY,6598,BC,-119.456944444444,49.875,360.0,1989-02-02,1991-03-04,Daily,Temperature (Max.)|Temperature (Min.)
17,ARDA,112105,4919,GLENMORE,6599,BC,-119.448333333333,49.9055555555556,399.0,1989-02-02,1991-03-04,Daily,Temperature (Max.)|Temperature (Min.)
17,ARDA,112118,4930,BERTRUM CK,6610,BC,-119.558333333333,49.7791666666667,490.0,1979-04-26,1989-01-30,Daily,Precipitation (Cumulative)|Temperature (Max.)|Temperature (Min.)
17,ARDA,112122,4933,MCCULLOCH RESERVOIR,6613,BC,-119.171666666667,49.7780555555556,1256.0,1981-05-17,1981-10-04,Daily,Precipitation (Cumulative)|Temperature (Max.)|Temperature (Min.)
17,ARDA,112170,4963,GREATA,6643,BC,-119.769166666667,49.7533333333333,495.0,1971-03-23,1972-10-29,Daily,Precipitation (Cumulative)|Relative Humidity (Mean)|Surface Snow Depth (Point)|Temperature (Max.)|Temperature (Min.)
17,ARDA,112171,4964,PIGEON,6644,BC,-119.837222222222,49.795,907.0,1971-03-31,1972-10-29,Daily,Precipitation (Cumulative)|Surface Snow Depth (Point)|Temperature (Max.)|Temperature (Min.)
17,ARDA,112172,4965,TREPANIER,6645,BC,-119.708333333333,49.7933333333333,477.0,1971-03-23,1972-10-29,Daily,Precipitation (Cumulative)|Surface Snow Depth (Point)|Temperature (Max.)|Temperature (Min.)
17,ARDA,112173,4966,MCCALL,6646,BC,-119.730833333333,49.78,358.0,1971-04-28,1972-09-27,Irregular,Precipitation (Cumulative)|Surface Snow Depth (Point)
17,ARDA,112174,4967,SECLUSION,6647,BC,-119.659166666667,49.8058333333333,479.0,1971-04-28,1972-09-27,Irregular,Precipitation (Cumulative)|Surface Snow Depth (Point)
17,ARDA,112175,4968,DROUGHT,6648,BC,-119.669444444444,49.8391666666667,640.0,1971-03-24,1972-10-11,Daily,Precipitation (Cumulative)|Surface Snow Depth (Point)|Temperature (Max.)|Temperature (Min.)
17,ARDA,112176,4969,GELLATLY,6649,BC,-119.645833333333,49.8416666666667,529.0,1971-03-26,1972-10-29,Daily,Precipitation (Cumulative)|Surface Snow Depth (Point)|Temperature (Max.)|Temperature (Min.)
17,ARDA,112177,4970,BOUCHERIE,6650,BC,-119.570833333333,49.8416666666667,433.0,1971-03-19,1972-10-29,Daily,Precipitation (Cumulative)|Relative Humidity (Mean)|Surface Snow Depth (Point)|Temperature (Max.)|Temperature (Min.)
17,ARDA,112178,4971,KALAMOIR,6651,BC,-119.5075,49.8333333333333,348.0,1971-03-23,1972-10-29,Daily,Precipitation (Cumulative)|Relative Humidity (Mean)|Surface Snow Depth (Point)|Temperature (Max.)|Temperature (Min.)
17,ARDA,112193,4972,BELLEVUE,6652,BC,-119.4775,49.8316666666667,347.0,1971-03-10,1975-09-17,Daily,Precipitation (Cumulative)|Relative Humidity (Mean)|Surface Snow Depth (Point)|Temperature (Max.)|Temperature (Min.)
17,ARDA,112194,4973,BEAU SEJOUR,6653,BC,-119.531666666667,49.7933333333333,375.0,1971-04-01,1971-10-31,Daily,Temperature (Max.)|Temperature (Min.)
17,ARDA,112195,4974,DEEPER,6654,BC,-119.6,49.7775,341.0,1971-04-06,1972-10-25,Daily,Precipitation (Cumulative)|Relative Humidity (Mean)|Surface Snow Depth (Point)|Temperature (Max.)|Temperature (Min.)
17,ARDA,112196,4975,RUMOHR,6655,BC,-119.451666666667,49.8725,357.0,1971-03-11,1972-10-29,Daily,Precipitation (Cumulative)|Relative Humidity (Mean)|Surface Snow Depth (Point)|Temperature (Max.)|Temperature (Min.)
17,ARDA,112197,4976,HACKEY,6656,BC,-119.420833333333,49.8633333333333,433.0,1971-03-11,1972-10-29,Daily,Relative Humidity (Mean)|Surface Snow Depth (Point)|Temperature (Max.)|Temperature (Min.)
17,ARDA,112199,4977,KLO,6657,BC,-119.37,49.8319444444444,594.0,1971-04-28,1972-09-30,Irregular,Precipitation (Cumulative)|Surface Snow Depth (Point)
17,ARDA,112201,4978,MYRA,6658,BC,-119.310833333333,49.8416666666667,774.0,1971-04-28,1972-09-30,Irregular,Precipitation (Cumulative)|Surface Snow Depth (Point)
17,ARDA,112209,4980,LAMBLY,6660,BC,-119.616666666667,50.0133333333333,972.0,1971-05-28,1972-09-28,Irregular,Precipitation (Cumulative)|Surface Snow Depth (Point)
17,ARDA,112210,4981,SANDBERG,6661,BC,-119.521666666667,49.9375,536.0,1971-05-28,1972-09-28,Irregular,Precipitation (Cumulative)|Surface Snow Depth (Point)
17,ARDA,112211,4982,HAYMAN,6662,BC,-119.6725,50.0616666666667,1347.0,1971-05-28,1972-09-28,Irregular,Precipitation (Cumulative)|Surface Snow Depth (Point)
17,ARDA,112212,4983,ESPERON,6663,BC,-119.685833333333,50.1033333333333,1412.0,1971-05-14,1972-10-29,Daily,Precipitation (Cumulative)|Surface Snow Depth (Point)|Temperature (Max.)|Temperature (Min.)
17,ARDA,112213,4984,DEE LAKE,6664,BC,-119.169166666667,50.1108333333333,1409.0,1971-05-15,1972-10-29,Daily,Precipitation (Cumulative)|Surface Snow Depth (Point)|Temperature (Max.)|Temperature (Min.)
17,ARDA,112214,4985,WRINKLY,6665,BC,-119.256666666667,50.0433333333333,1364.0,1971-05-29,1972-08-26,Irregular,Precipitation (Cumulative)|Surface Snow Depth (Point)
17,ARDA,112215,4986,POSTILL,6666,BC,-119.335,50.0308333333333,866.0,1971-05-29,1972-09-28,Irregular,Precipitation (Cumulative)|Surface Snow Depth (Point)
17,ARDA,112223,4988,ELLISON,6668,BC,-119.395833333333,49.9791666666667,436.0,1971-04-28,1972-09-29,Irregular,Precipitation (Cumulative)|Surface Snow Depth (Point)
17,ARDA,112226,4989,WOODSDALE,6669,BC,-119.371666666667,50.065,535.0,1971-03-29,1972-10-29,Daily,Precipitation (Cumulative)|Relative Humidity (Mean)|Surface Snow Depth (Point)|Temperature (Max.)|Temperature (Min.)
17,ARDA,112231,4990,RATTLESNAKE,6670,BC,-119.386666666667,50.1266666666667,425.0,1971-04-28,1972-09-29,Irregular,Precipitation (Cumulative)|Surface Snow Depth (Point)
17,ARDA,112232,4991,KALAMALKA,6671,BC,-119.344166666667,50.1875,482.0,1971-06-28,1972-09-29,Irregular,Precipitation (Cumulative)|Surface Snow Depth (Point)
17,ARDA,112234,4992,BELLAVISTA,6672,BC,-119.295833333333,50.2666666666667,466.0,1971-03-18,1972-10-29,Daily,Precipitation (Cumulative)|Relative Humidity (Mean)|Surface Snow Depth (Point)|Temperature (Max.)|Temperature (Min.)
17,ARDA,112242,4994,SWAN LAKE,6674,BC,-119.239166666667,50.295,500.0,1971-04-07,1972-10-29,Daily,Surface Snow Depth (Point)|Temperature (Max.)|Temperature (Min.)
17,ARDA,112245,4995,OKEEFE,6675,BC,-119.299166666667,50.3791666666667,473.0,1971-03-18,1972-10-29,Daily,Precipitation (Cumulative)|Surface Snow Depth (Point)|Temperature (Max.)|Temperature (Min.)
17,ARDA,112253,4997,WHITELOCK,6677,BC,-119.095833333333,50.2333333333333,543.0,1974-03-19,1975-10-09,Daily,Temperature (Max.)|Temperature (Min.)
17,ARDA,112301,5001,GLEN WOOD,6681,BC,-119.444444444444,50.1333333333333,412.0,1975-05-14,1989-01-26,Daily,Precipitation (Cumulative)|Relative Humidity (Mean)|Surface Snow Depth (Point)|Temperature (Max.)|Temperature (Min.)
17,ARDA,112303,5003,KELOKA,6683,BC,-119.440277777778,49.8561111111111,421.0,1977-12-01,1991-03-04,Daily,Surface Snow Depth (Point)|Temperature (Max.)|Temperature (Min.)
17,ARDA,113022,5027,BIG WHITE,6707,BC,-118.933333333333,49.7333333333333,1844.0,1965-11-05,1975-09-09,Daily,Precipitation (Cumulative)|Relative Humidity (Mean)|Surface Snow Depth (Point)|Temperature (Max.)|Temperature (Min.)
17,ARDA,113062,5061,NEVERTOUCH,6741,BC,-118.733611111111,49.7675,942.0,1969-06-29,1972-09-29,Irregular,Precipitation (Cumulative)|Surface Snow Depth (Point)
17,ARDA,113063,5062,MOHR,6742,BC,-118.710555555556,49.8275,969.0,1969-06-29,1972-09-29,Irregular,Precipitation (Cumulative)|Surface Snow Depth (Point)
17,ARDA,113064,5063,GOATSKIN,6743,BC,-118.697222222222,49.8597222222222,984.0,1969-06-29,1972-09-29,Irregular,Precipitation (Cumulative)|Surface Snow Depth (Point)
17,ARDA,113065,5064,WINNIFRED,6744,BC,-118.6925,49.9111111111111,1042.0,1969-06-29,1972-07-31,Irregular,Precipitation (Cumulative)|Surface Snow Depth (Point)
17,ARDA,113066,5065,STOVE,6745,BC,-118.696666666667,49.9472222222222,1073.0,1969-06-29,1972-09-29,Irregular,Precipitation (Cumulative)|Surface Snow Depth (Point)
17,ARDA,113067,5066,STOVE TEMP,6746,BC,-118.8525,49.955,1059.0,1969-10-08,1972-10-30,Daily,Precipitation (Cumulative)|Surface Snow Depth (Point)|Temperature (Max.)|Temperature (Min.)
17,ARDA,113068,5067,WOODMOUSE,6747,BC,-118.635555555556,49.9833333333333,1134.0,1969-06-29,1972-09-29,Irregular,Precipitation (Cumulative)|Surface Snow Depth (Point)
17,ARDA,113069,5068,UNO,6748,BC,-118.592777777778,50.025,1100.0,1969-06-29,1972-09-29,Irregular,Precipitation (Cumulative)|Surface Snow Depth (Point)
17,ARDA,113070,5069,COOKSON,6749,BC,-119.121666666667,49.7358333333333,1189.0,1971-04-26,1972-09-29,Irregular,Precipitation (Cumulative)|Surface Snow Depth (Point)
17,ARDA,114041,5110,SHIELL,6790,BC,-118.475833333333,50.0566666666667,1314.0,1969-05-02,1971-03-30,Irregular,Precipitation (Cumulative)|Surface Snow Depth (Point)
17,ARDA,114042,5111,WAUCHOPE,6791,BC,-118.420833333333,50.0616666666667,1213.0,1969-05-02,1971-03-30,Irregular,Precipitation (Cumulative)|Surface Snow Depth (Point)
17,ARDA,114043,5112,BANTING,6792,BC,-118.36,50.0233333333333,1134.0,1969-05-02,1970-10-30,Irregular,Precipitation (Cumulative)|Surface Snow Depth (Point)
17,ARDA,114044,5113,GALLOPING,6793,BC,-118.283333333333,49.9683333333333,884.0,1969-05-02,1970-10-30,Irregular,Precipitation (Cumulative)|Surface Snow Depth (Point)
17,ARDA,114045,5114,BENCH,6794,BC,-118.218888888889,49.95,724.0,1969-05-02,1971-03-30,Irregular,Precipitation (Cumulative)|Surface Snow Depth (Point)
17,ARDA,114046,5115,MCDERMOT,6795,BC,-118.15,49.8730555555556,480.0,1969-06-29,1971-03-30,Irregular,Precipitation (Cumulative)|Surface Snow Depth (Point)
17,ARDA,114048,5116,BARNES 46,6796,BC,-118.231111111111,50.0563888888889,1390.0,1969-06-12,1970-12-20,Daily,Precipitation (Cumulative)|Surface Snow Depth (Point)|Temperature (Max.)|Temperature (Min.)
17,ARDA,114049,5117,BARNES 38,6797,BC,-118.2125,50.0236111111111,1128.0,1969-06-12,1971-03-30,Daily,Precipitation (Cumulative)|Surface Snow Depth (Point)|Temperature (Max.)|Temperature (Min.)
17,ARDA,114050,5118,SNOWSHOE,6798,BC,-118.168611111111,49.9605555555556,831.0,1969-08-30,1971-03-30,Irregular,Precipitation (Cumulative)|Surface Snow Depth (Point)
17,ARDA,114051,5119,MCGILL,6799,BC,-118.134444444444,49.9,619.0,1969-06-29,1971-03-30,Daily,Precipitation (Cumulative)|Surface Snow Depth (Point)|Temperature (Max.)|Temperature (Min.)
17,ARDA,114052,5120,YELLOW,6800,BC,-118.193333333333,49.9,614.0,1969-05-02,1970-10-30,Irregular,Precipitation (Cumulative)|Surface Snow Depth (Point)
17,ARDA,114055,5121,PIN,6801,BC,-118.053888888889,49.8933333333333,466.0,1969-05-31,1970-10-30,Irregular,Precipitation (Cumulative)
17,ARDA,114056,5122,DELTA,6802,BC,-118.011388888889,49.9291666666667,469.0,1969-06-30,1971-02-26,Irregular,Precipitation (Cumulative)|Surface Snow Depth (Point)
17,ARDA,114057,5123,JOY,6803,BC,-117.970833333333,49.9583333333333,450.0,1969-06-30,1970-10-30,Irregular,Precipitation (Cumulative)
17,ARDA,114058,5124,BURTON 2,6804,BC,-117.879444444444,49.9688888888889,450.0,1969-06-12,1971-03-30,Irregular,Precipitation (Cumulative)|Surface Snow Depth (Point)
17,ARDA,114059,5125,BARBED WIRE2,6805,BC,-117.893888888889,50.0261111111111,457.0,1969-05-02,1971-02-26,Irregular,Precipitation (Cumulative)|Surface Snow Depth (Point)
17,ARDA,114060,5126,FAIRHURST 2,6806,BC,-117.925,50.0777777777778,457.0,1969-05-02,1970-10-30,Irregular,Precipitation (Cumulative)
17,ARDA,114061,5127,ARROW 2,6807,BC,-117.845833333333,50.1044444444444,480.0,1969-06-12,1971-03-30,Irregular,Precipitation (Cumulative)|Surface Snow Depth (Point)
17,ARDA,114062,5128,SLEWISKIN,6808,BC,-117.79,50.1575,475.0,1969-05-02,1971-03-30,Irregular,Precipitation (Cumulative)|Surface Snow Depth (Point)
17,ARDA,114063,5129,BAERG,6809,BC,-117.778333333333,50.1933333333333,536.0,1969-05-02,1970-09-29,Irregular,Precipitation (Cumulative)|Surface Snow Depth (Point)
17,ARDA,114108,5156,MOBBS,6836,BC,-117.273333333333,50.06,708.0,1969-05-15,1971-03-31,Irregular,Precipitation (Cumulative)|Surface Snow Depth (Point)
17,ARDA,114110,5158,CASCADE,6838,BC,-117.145833333333,50.4266666666667,678.0,1969-05-15,1971-03-31,Irregular,Precipitation (Cumulative)|Surface Snow Depth (Point)
17,ARDA,114118,5166,KEEN CREEK,6847,BC,-117.120277777778,49.8716666666667,1197.0,1979-10-05,1984-08-10,Daily,Temperature (Max.)|Temperature (Min.)
17,ARDA,114120,5168,KOKANEE,6849,BC,-117.161111111111,49.7886111111111,1412.0,1969-09-10,1971-05-07,Daily,Precipitation (Cumulative)|Precipitation Amount|Temperature (Max.)|Temperature (Min.)
17,ARDA,114121,5169,VIRGIL,6850,BC,-117.165,49.8188888888889,1400.0,1969-06-30,1970-09-30,Irregular,Precipitation (Cumulative)
17,ARDA,114122,5170,LONG,6851,BC,-117.117777777778,49.8783333333333,1219.0,1969-06-30,1970-10-31,Irregular,Precipitation (Cumulative)
17,ARDA,114124,5172,DENVER,6853,BC,-117.344444444444,49.9955555555556,713.0,1969-05-18,1971-03-31,Irregular,Precipitation (Cumulative)|Surface Snow Depth (Point)
17,ARDA,114125,5173,ANTOINE,6854,BC,-117.277777777778,50.0119444444444,849.0,1969-05-18,1971-03-31,Irregular,Precipitation (Cumulative)|Surface Snow Depth (Point)
17,ARDA,114126,5174,FISH LAKE,6855,BC,-117.204722222222,50.0355555555556,1084.0,1969-05-18,1970-12-30,Irregular,Precipitation (Cumulative)|Surface Snow Depth (Point)
17,ARDA,114127,5175,ZINCTON,6856,BC,-117.188333333333,50.0444444444444,1105.0,1969-10-15,1970-12-29,Daily,Precipitation (Cumulative)|Surface Snow Depth (Point)|Temperature (Max.)|Temperature (Min.)
17,ARDA,114128,5176,MINESHAFT,6857,BC,-117.120277777778,50.0311111111111,988.0,1969-05-18,1971-03-31,Irregular,Precipitation (Cumulative)|Surface Snow Depth (Point)
17,ARDA,114165,5209,LEMON,6890,BC,-117.466944444444,49.7544444444444,541.0,1969-05-29,1971-03-31,Irregular,Precipitation (Cumulative)|Surface Snow Depth (Point)
17,ARDA,114166,5210,ENTERPRISE,6891,BC,-117.442222222222,49.82,735.0,1969-05-03,1970-10-29,Irregular,Precipitation (Cumulative)|Surface Snow Depth (Point)
17,ARDA,114167,5211,CONGO,6892,BC,-117.415277777778,49.8627777777778,709.0,1969-05-03,1971-03-31,Irregular,Precipitation (Cumulative)|Surface Snow Depth (Point)
17,ARDA,114168,5212,VEVEY,6893,BC,-117.3775,49.8972222222222,838.0,1969-05-03,1971-03-31,Irregular,Precipitation (Cumulative)|Surface Snow Depth (Point)
17,ARDA,114169,5213,WILSON,6894,BC,-117.423333333333,50.0375,602.0,1969-05-02,1970-10-29,Irregular,Precipitation (Cumulative)|Surface Snow Depth (Point)
17,ARDA,114170,5214,ARTHUR,6895,BC,-117.461666666667,50.0925,571.0,1969-05-02,1970-10-29,Irregular,Precipitation (Cumulative)|Surface Snow Depth (Point)
17,ARDA,114171,5215,OWLS,6896,BC,-117.525833333333,50.1255555555556,704.0,1969-05-02,1971-03-31,Irregular,Precipitation (Cumulative)|Surface Snow Depth (Point)
17,ARDA,114172,5216,BIG SISTER,6897,BC,-117.598611111111,50.145,780.0,1969-05-02,1971-03-31,Irregular,Precipitation (Cumulative)|Surface Snow Depth (Point)
17,ARDA,114173,5217,PASTIE,6898,BC,-117.679444444444,50.1844444444444,770.0,1969-05-02,1971-03-31,Irregular,Precipitation (Cumulative)|Surface Snow Depth (Point)
17,ARDA,114179,5221,DIXON,6902,BC,-117.925,50.105,457.0,1969-08-30,1970-10-30,Irregular,Precipitation (Cumulative)
17,ARDA,114180,5222,GARNET,6903,BC,-117.976666666667,50.1333333333333,602.0,1969-08-30,1970-10-30,Irregular,Precipitation (Cumulative)
17,ARDA,114182,5223,SADDLE,6904,BC,-117.968333333333,50.2166666666667,648.0,1969-07-30,1970-10-30,Irregular,Precipitation (Cumulative)
17,ARDA,114183,5224,BALDUR,6905,BC,-118.018333333333,50.3883333333333,716.0,1969-08-30,1970-10-30,Irregular,Precipitation (Cumulative)
17,ARDA,114184,5225,FOSTHALL,6906,BC,-118.025,50.3519444444444,693.0,1969-07-30,1970-10-30,Irregular,Precipitation (Cumulative)
17,ARDA,114185,5226,PLANT,6907,BC,-118.054166666667,50.3233333333333,687.0,1969-07-30,1970-10-30,Irregular,Precipitation (Cumulative)
17,ARDA,114186,5227,CUSSON,6908,BC,-118.0425,50.265,710.0,1969-08-30,1970-10-30,Irregular,Precipitation (Cumulative)
17,ARDA,114187,5228,RIOULX,6909,BC,-118.033333333333,50.2233333333333,1021.0,1969-07-30,1970-10-30,Irregular,Precipitation (Cumulative)
17,ARDA,114188,5229,WHATSHAN,6910,BC,-118.081666666667,50.1858333333333,891.0,1969-06-29,1970-10-30,Irregular,Precipitation (Cumulative)
17,ARDA,114189,5230,FIFE,6911,BC,-118.101666666667,50.1233333333333,754.0,1969-06-29,1970-10-30,Irregular,Precipitation (Cumulative)
17,ARDA,114190,5231,STEVENS,6912,BC,-118.070833333333,50.0908333333333,762.0,1969-06-29,1970-10-30,Irregular,Precipitation (Cumulative)
17,ARDA,114191,5232,INGERSOLL,6913,BC,-118.0875,50.0383333333333,808.0,1969-07-30,1970-10-30,Irregular,Precipitation (Cumulative)
17,ARDA,114192,5233,CHRISTY,6914,BC,-118.088333333333,49.935,695.0,1969-06-29,1970-10-30,Irregular,Precipitation (Cumulative)
17,ARDA,114193,5234,ANDRES,6915,BC,-118.108333333333,49.945,661.0,1969-06-29,1970-10-30,Irregular,Precipitation (Cumulative)
17,ARDA,114194,5235,KUSKANAX,6916,BC,-117.811944444444,50.2613888888889,503.0,1969-05-02,1971-03-30,Irregular,Precipitation (Cumulative)|Surface Snow Depth (Point)
17,ARDA,114195,5236,TURNER,6917,BC,-117.851666666667,50.3033333333333,480.0,1969-05-02,1970-10-29,Irregular,Precipitation (Cumulative)
17,ARDA,114196,5237,CAPE HORNE,6918,BC,-117.885555555556,50.3416666666667,520.0,1969-05-02,1971-03-30,Irregular,Precipitation (Cumulative)|Surface Snow Depth (Point)
17,ARDA,114197,5238,ST LEON,6919,BC,-117.886111111111,50.4383333333333,454.0,1969-05-02,1971-03-30,Irregular,Precipitation (Cumulative)|Surface Snow Depth (Point)
17,ARDA,116033,5555,MINNIE LK 2,7237,BC,-120.412222222222,50.005,1073.0,1981-10-24,1987-02-16,Daily,Precipitation (Cumulative)|Precipitation Amount|Surface Snow Depth (Point)|Temperature (Max.)|Temperature (Min.)
17,ARDA,116068,5573,DURE,7255,BC,-119.056944444444,50.2425,568.0,1969-05-30,1972-09-30,Irregular,Precipitation (Cumulative)|Surface Snow Depth (Point)
17,ARDA,116075,5578,BISSON,7260,BC,-118.55,50.0408333333333,1204.0,1969-05-02,1972-09-29,Irregular,Precipitation (Cumulative)|Surface Snow Depth (Point)
17,ARDA,116081,5580,MAID,7262,BC,-119.2075,50.425,395.0,1971-03-18,1972-10-29,Daily,Precipitation (Cumulative)|Relative Humidity (Mean)|Surface Snow Depth (Point)|Temperature (Max.)|Temperature (Min.)
17,ARDA,116116,5601,DEAFIES,7283,BC,-118.934166666667,50.3875,747.0,1971-05-30,1972-09-29,Irregular,Precipitation (Cumulative)
17,ARDA,116139,5619,DUTEAU,7301,BC,-119.045,50.2166666666667,628.0,1971-04-07,1972-08-31,Daily,Precipitation (Cumulative)|Surface Snow Depth (Point)|Temperature (Max.)|Temperature (Min.)
17,ARDA,116202,5680,VANITY      KAM,7362,BC,-119.827777777778,50.3916666666667,705.0,1971-05-29,1973-10-25,Irregular,Precipitation (Cumulative)|Surface Snow Depth (Point)
17,ARDA,116203,5681,YELBELMAR   KAM,7363,BC,-119.954166666667,50.3416666666667,976.0,1971-05-29,1973-10-25,Irregular,Precipitation (Cumulative)|Surface Snow Depth (Point)
17,ARDA,116204,5682,SALMON LAKE KAM,7364,BC,-119.991666666667,50.2833333333333,950.0,1971-05-29,1973-10-25,Irregular,Precipitation (Cumulative)|Surface Snow Depth (Point)
17,ARDA,116205,5683,PIKEHEAD    KAM,7365,BC,-120.051111111111,50.2305555555556,877.0,1971-05-29,1973-10-25,Irregular,Precipitation (Cumulative)|Surface Snow Depth (Point)
17,ARDA,116206,5684,CHAPPERON LK,7366,BC,-120.115277777778,50.1777777777778,878.0,1971-04-11,1973-10-24,Daily,Precipitation (Cumulative)|Surface Snow Depth (Point)|Temperature (Max.)|Temperature (Min.)
17,ARDA,116207,5685,SPAHOMIN    KAM,7367,BC,-120.234722222222,50.1583333333333,808.0,1971-06-27,1973-10-25,Irregular,Precipitation (Cumulative)|Surface Snow Depth (Point)
17,ARDA,116208,5686,COMMONAGE   KAM,7368,BC,-120.330555555556,50.1458333333333,856.0,1971-05-29,1973-10-25,Irregular,Precipitation (Cumulative)|Surface Snow Depth (Point)
17,ARDA,116209,5687,SHAMILE     KAM,7369,BC,-120.411111111111,50.1819444444444,743.0,1971-05-29,1973-10-24,Irregular,Precipitation (Cumulative)|Surface Snow Depth (Point)
17,ARDA,116241,5719,SUGARLOAF   KAM,7401,BC,-120.566666666667,50.15,671.0,1971-06-28,1971-11-26,Irregular,Precipitation (Cumulative)|Surface Snow Depth (Point)
17,ARDA,116241,5719,SUGARLOAF   KAM,7402,BC,-120.4,50.15,671.0,1972-02-25,1973-09-27,Irregular,Precipitation (Cumulative)|Surface Snow Depth (Point)
17,ARDA,116242,5720,MEANDER     KAM,7403,BC,-120.476388888889,50.225,632.0,1971-05-28,1973-10-24,Irregular,Precipitation (Cumulative)|Surface Snow Depth (Point)
17,ARDA,116243,5721,GOGO        KAM,7404,BC,-120.407777777778,50.2819444444444,658.0,1971-05-28,1973-10-26,Irregular,Precipitation (Cumulative)|Surface Snow Depth (Point)
17,ARDA,116244,5722,PAMPAS      KAM,7405,BC,-120.418055555556,50.3430555555556,762.0,1971-05-28,1973-10-26,Irregular,Precipitation (Cumulative)|Surface Snow Depth (Point)
17,ARDA,116245,5723,STUMP LAKE  KAM,7406,BC,-120.331944444444,50.3930555555556,754.0,1971-04-10,1973-10-26,Daily,Precipitation (Cumulative)|Surface Snow Depth (Point)|Temperature (Max.)|Temperature (Min.)
17,ARDA,116261,5739,MT MABEL,7422,BC,-120.481944444444,50.2666666666667,960.0,1971-04-24,1973-10-26,Daily,Precipitation (Cumulative)|Temperature (Max.)|Temperature (Min.)
17,ARDA,116410,5802,MINNIE LAKE,7485,BC,-120.409166666667,50.0052777777778,1090.0,1981-01-14,1981-10-24,Daily,Precipitation (Cumulative)|Precipitation Amount|Temperature (Max.)|Temperature (Min.)
17,ARDA,116411,5803,CHAPPERON LK,7486,BC,-120.023055555556,50.2058333333333,991.0,1981-01-15,1987-02-16,Daily,Precipitation (Cumulative)|Surface Snow Depth (Point)|Temperature (Max.)|Temperature (Min.)
17,ARDA,116412,5804,LAUDER RANCH,7487,BC,-120.3375,50.2058333333333,933.0,1981-01-15,1991-03-04,Daily,Precipitation (Cumulative)|Precipitation Amount|Surface Snow Depth (Point)|Temperature (Max.)|Temperature (Min.)
17,ARDA,116500,5809,QUILCHENACDAKAM,7492,BC,-120.505555555556,50.1638888888889,648.0,1968-11-15,1973-10-01,Daily,Precipitation (Cumulative)|Relative Humidity (Mean)|Surface Snow Depth (Point)|Temperature (Max.)|Temperature (Min.)
17,ARDA,116501,5810,HAMILTON CDAKAM,7493,BC,-120.420833333333,50.0666666666667,1250.0,1969-04-11,1973-09-30,Daily,Precipitation (Cumulative)|Relative Humidity (Mean)|Surface Snow Depth (Point)|Temperature (Max.)|Temperature (Min.)
17,ARDA,116502,5811,MINNIE L CDAKAM,7494,BC,-120.4125,50.0291666666667,1097.0,1969-04-11,1973-10-01,Daily,Precipitation (Cumulative)|Relative Humidity (Mean)|Surface Snow Depth (Point)|Temperature (Max.)|Temperature (Min.)
17,ARDA,116503,5812,GOOSE L CDA KAM,7495,BC,-120.433333333333,50.1069444444444,1158.0,1971-05-06,1973-10-01,Daily,Precipitation (Cumulative)|Relative Humidity (Mean)|Surface Snow Depth (Point)|Temperature (Max.)|Temperature (Min.)
17,ARDA,116511,5819,DARDANELLES KAM,7502,BC,-120.276388888889,50.3041666666667,1372.0,1972-05-25,1973-10-18,Daily,Precipitation (Cumulative)|Temperature (Max.)|Temperature (Min.)
17,ARDA,116512,5820,EQUISES CK  KAM,7503,BC,-119.656944444444,50.3416666666667,1646.0,1972-06-27,1973-10-04,Daily,Precipitation (Cumulative)|Temperature (Max.)|Temperature (Min.)
17,ARDA,116513,5821,GLIMPSE LAKEKAM,7504,BC,-120.291666666667,50.2472222222222,1189.0,1972-05-26,1973-10-18,Daily,Precipitation (Cumulative)|Temperature (Max.)|Temperature (Min.)
19,EC_raw,1123965,6606,Kelowna Airport,8291,BC,-119.3777778,49.95722222,429.5,2011-05-31,2013-01-21,Hourly,Air Pressure Tendency|Dew Point Temperature (Point)|Mean Sea Level|Precipitation Amount|Relative Humidity (Point)|Temperature (Max.)|Temperature (Min.)|Temperature (Point)|Wind Direction (Mean)|Wind Gust (Max.)|Wind Speed (Point)
19,EC_raw,1145297,6618,Nakusp,8303,BC,-117.8127778,50.26638889,512.1,2010-03-02,2024-01-14,Hourly,Air Pressure Tendency|Dew Point Temperature (Point)|Mean Sea Level|Precipitation Amount|Relative Humidity (Point)|Snowfall Amount|Temperature (Max.)|Temperature (Min.)|Temperature (Point)|Wind Direction (Mean)|Wind Gust (Max.)|Wind Speed (Point)
19,EC_raw,1128581,6666,Vernon,8351,BC,-119.1935556,50.22330556,482.0,2011-05-31,2013-01-21,Hourly,Air Pressure Tendency|Dew Point Temperature (Point)|Mean Sea Level|Precipitation Amount|Relative Humidity (Point)|Temperature (Max.)|Temperature (Min.)|Temperature (Point)|Wind Direction (Mean)|Wind Gust (Max.)|Wind Speed (Point)
19,EC_raw,1123939,10822,Kelowna Airport,12962,BC,-119.38,49.96,433.1,2010-01-02,2024-01-14,Hourly,Cloud Cover Fraction|Dew Point Temperature (Point)|Mean Sea Level|Precipitation Amount|Relative Humidity (Point)|Temperature (Max.)|Temperature (Min.)|Temperature (Point)|Wind Direction (Mean)|Wind Gust (Max.)|Wind Speed (Point)
19,EC_raw,1128582,10836,Vernon,12978,BC,-119.19,50.22,482.0,2010-03-02,2024-01-12,Hourly,Air Pressure Tendency|Dew Point Temperature (Point)|Mean Sea Level|Precipitation Amount|Relative Humidity (Point)|Temperature (Max.)|Temperature (Min.)|Temperature (Point)|Wind Direction (Mean)|Wind Gust (Max.)|Wind Speed (Point)
19,EC_raw,1123996,10908,Kelowna,13065,BC,-119.400278,49.940833,456.0,2013-03-14,2024-01-14,Hourly,Air Pressure Tendency|Dew Point Temperature (Point)|Mean Sea Level|Precipitation Amount|Relative Humidity (Point)|Temperature (Max.)|Temperature (Min.)|Temperature (Point)
12,FLNRO-WMB,1183,11003,ZZ SPRINGER QD,13171,BC,-117.3969333,49.79713333,1826.0,2014-07-20,2014-08-04,Unspecified,Precipitation Amount|Relative Humidity (Mean)|Temperature (Point)|Wind Direction (Mean)|Wind Speed (Mean)
12,FLNRO-WMB,1214,11413,ZZ KEALY CREEK TS,13474,BC,-118.4452833,50.40876667,1223.0,2015-06-09,2015-10-07,Unspecified,Precipitation Amount|Relative Humidity (Mean)|Temperature (Point)|Wind Direction (Mean)|Wind Speed (Mean)
12,FLNRO-WMB,1216,11415,ZZ ESPERON TS,13476,BC,-119.6911167,50.07055,1429.0,2015-06-10,2015-10-07,Unspecified,Precipitation Amount|Relative Humidity (Mean)|Temperature (Point)|Wind Direction (Mean)|Wind Speed (Mean)
12,FLNRO-WMB,1215,11416,ZZ POSTILL LAKE TEMP,13477,BC,-119.22945,49.98528333,1395.0,2015-06-11,2017-11-01,Unspecified,Precipitation Amount|Relative Humidity (Mean)|Temperature (Point)|Wind Direction (Mean)|Wind Speed (Mean)
12,FLNRO-WMB,1256,12021,ZZ MISSION RIDGE TS,14078,BC,-119.1238833,49.89471667,1250.0,2015-08-21,2016-09-17,Unspecified,Precipitation Amount|Relative Humidity (Mean)|Temperature (Point)|Wind Direction (Mean)|Wind Speed (Mean)
12,FLNRO-WMB,1277,12035,WEST KELOWNA,14092,BC,-119.5695,49.8832,650.0,2016-12-19,2024-01-14,Unspecified,Dew Point Temperature|Precipitation Amount|Rainfall 1hr|Rainfall 24hr|Relative Humidity|Relative Humidity (Mean)|Temperature|Temperature (Point)|Wind Direction|Wind Direction (Mean)|Wind Speed|Wind Speed (Mean)
12,FLNRO-WMB,1285,12046,ZZ KATHLEEN LAKE TEMP,14103,BC,-120.06695,49.73833333,1397.0,2017-05-31,2017-10-20,Unspecified,Precipitation Amount|Relative Humidity (Mean)|Temperature (Point)|Wind Direction (Mean)|Wind Speed (Mean)
9,ENV-AQN,0500886,12170,Kelowna College,14226,BC,-119.477367,49.862336,347.0,2009-01-01,2019-06-03,Hourly,Relative Humidity|Relative Humidity (Point)|Temperature (Mean)|Wind Direction (Point)|Wind Speed (Point)
12,FLNRO-WMB,480,12335,SILVERSTAR SF,14391,BC,-119.0654167,50.3682,1880.0,2018-06-26,2024-01-13,Unspecified,Precipitation Amount|Relative Humidity (Mean)|Temperature (Point)|Wind Direction (Mean)|Wind Speed (Mean)
9,ENV-AQN,E317850,12462,Kelowna KLO Road,14484,BC,-119.467461,49.862119,350.0,2019-09-01,2024-01-07,Unspecified,Relative Humidity|Relative Humidity (Point)|Temperature (Mean)|Wind Direction (Point)|Wind Speed (Point)
2,MoTIe,29093,12470,Pothole Lake,14492,BC,-120.54637,49.93951,1045.0,2019-11-21,2024-01-14,Unspecified,Dew Point Temperature|Dew Point Temperature (Mean)|Precipitation 24hr|Precipitation Amount|Relative Humidity|Relative Humidity (Mean)|Snow Depth|Snowfall|Temperature (Max.)|Temperature (Mean)|Temperature (Min.)|Temperature (Point)|Wind Direction|Wind Direction (Mean)|Wind Direction (Std Dev)|Wind Gust|Wind Speed|Wind Speed (Mean)
2,MoTIe,29094,12471,Brenda Mine,14493,BC,-119.93686,49.86973,1270.0,2019-11-21,2024-01-14,Unspecified,Dew Point Temperature|Precipitation 24hr|Precipitation Amount|Relative Humidity|Relative Humidity (Mean)|Snow Depth|Snowfall|Temperature (Max.)|Temperature (Mean)|Temperature (Min.)|Temperature (Point)
2,MoTIe,34091,12473,Monashee Pass,14495,BC,-118.39633,50.05055,1223.0,2019-11-21,2024-01-14,Unspecified,Air Pressure|Air Pressure (Point)|Dew Point Temperature|Dew Point Temperature (Mean)|Precipitation 24hr|Precipitation Amount|Relative Humidity|Relative Humidity (Mean)|Sea Level Pressure|Snow Depth|Snowfall|Surface Snow Depth (Point)|Temperature (Max.)|Temperature (Mean)|Temperature (Min.)|Temperature (Point)|Wind Direction|Wind Direction (Mean)|Wind Direction (Std Dev)|Wind Gust|Wind Speed|Wind Speed (Mean)
2,MoTIe,34127,12474,Dardanelle,14496,BC,-117.18099,50.0223,2200.0,2019-11-21,2024-01-14,Unspecified,Dew Point Temperature|Dew Point Temperature (Mean)|Relative Humidity|Relative Humidity (Mean)|Temperature (Max.)|Temperature (Mean)|Temperature (Min.)|Temperature (Point)|Wind Direction|Wind Direction (Mean)|Wind Direction (Std Dev)|Wind Gust|Wind Speed|Wind Speed (Mean)
14,ENV-ASP,2F01AP,12509,Trout Creek West,14531,BC,-120.1891,49.74017,1420.0,2019-12-16,2024-01-14,Unspecified,Cumulative Precipitation|Precipitation 1hr|Precipitation 24hr|Snow Depth|Snow Water Equivalent|Temperature (Mean)
9,ENV-AQN,Kelowna KLO Road,12554,,14576,BC,-119.467461,49.862119,,2020-07-27,2020-11-22,Unspecified,Relative Humidity (Point)|Wind Direction (Point)
9,ENV-AQN,Vernon Science Centre,12585,,14607,BC,-119.270723,50.260617,,2020-07-27,2020-11-22,Unspecified,Relative Humidity (Point)|Wind Direction (Point)
14,ENV-ASP,2F10P,12954,,14886,BC,-119.0621,50.3714,,2021-03-18,2024-01-11,Unspecified,Cumulative Precipitation|Precipitation 1hr|Precipitation 24hr|Snow Depth|Snow Water Equivalent|Temperature (Mean)
11,FLNRO-FERN,WADF7 Kokanee,13047,WADF7 Kokanee,14979,BC,-117.194916,49.771598,1970.0,unknown,unknown,Unspecified,
11,FLNRO-FERN,WADF8 Ranger,13050,WADF8 Ranger,14982,BC,-117.1808333,49.77305556,2020.0,unknown,unknown,Unspecified,
