,Network ID,Network Name,Native ID,Station ID,Station Name,History ID,Province,Longitude,Latitude,Elevation (m),Record Start,Record End,Obs Freq,Variables
20,1,EC,116NJ9F,295,MONTE CREEK,698,BC,-119.95,50.65,351.0,1986-07-01,2007-03-30,Daily,Precipitation Amount|Precipitation Climatology|Rainfall Amount|Snowfall Amount|Surface Snow Depth (Point)
103,1,EC,1166527,1297,PRITCHARD,1700,BC,-119.816667,50.683333,381.0,1986-01-03,2001-01-01,Daily,Precipitation Amount|Precipitation Climatology|Rainfall Amount|Snowfall Amount|Surface Snow Depth (Point)|Temperature (Max.)|Temperature (Min.)|Temperature Climatology (Max.)|Temperature Climatology (Mean)|Temperature Climatology (Min.)
108,1,EC,1166JFR,1305,PINANTAN LAKE,1708,BC,-119.95,50.716667,960.0,1986-07-01,2006-05-31,Daily,Precipitation Amount|Precipitation Climatology|Rainfall Amount|Snowfall Amount|Surface Snow Depth (Point)|Temperature (Max.)|Temperature (Min.)|Temperature Climatology (Max.)|Temperature Climatology (Mean)|Temperature Climatology (Min.)
128,1,EC,116NJRF,1337,MONTE CREEK WEST,1740,BC,-120.016667,50.65,363.0,1986-07-01,2001-01-01,Daily,Precipitation Amount|Precipitation Climatology|Rainfall Amount|Snowfall Amount|Surface Snow Depth (Point)|Temperature (Max.)|Temperature (Min.)|Temperature Climatology (Max.)|Temperature Climatology (Mean)|Temperature Climatology (Min.)
346,17,ARDA,116158,5637,MONTE CK 1  KAM,7319,BC,-119.990277777778,50.6472222222222,362.0,1971-05-03,1973-10-25,Irregular,Precipitation (Cumulative)|Surface Snow Depth (Point)
347,17,ARDA,116159,5638,ROCKY       KAM,7320,BC,-119.894444444444,50.6458333333333,351.0,1971-05-27,1973-10-23,Irregular,Precipitation (Cumulative)|Surface Snow Depth (Point)
348,17,ARDA,116160,5639,PRITCHARD   KAM,7321,BC,-119.806944444444,50.6833333333333,379.0,1971-04-20,1973-10-24,Daily,Precipitation (Cumulative)|Surface Snow Depth (Point)|Temperature (Max.)|Temperature (Min.)
349,17,ARDA,116161,5640,NEDS        KAM,7322,BC,-119.830555555556,50.6444444444444,646.0,1971-04-20,1973-10-25,Daily,Precipitation (Cumulative)|Surface Snow Depth (Point)|Temperature (Max.)|Temperature (Min.)
382,17,ARDA,116201,5679,MONTE CK 2  KAM,7361,BC,-119.915277777778,50.6263888888889,552.0,1971-06-11,1973-10-25,Irregular,Precipitation (Cumulative)|Surface Snow Depth (Point)
