,Network ID,Network Name,Native ID,Station ID,Station Name,History ID,Province,Longitude,Latitude,Elevation (m),Record Start,Record End,Obs Freq,Variables
22,1,EC,1120630,1014,BANKEIR,1417,BC,-120.233333,49.716667,1097.0,1954-08-20,1959-07-31,Daily,Precipitation Amount|Rainfall Amount|Snowfall Amount|Temperature (Max.)|Temperature (Min.)
23,1,EC,1120633,1015,BANKIER CHAIN LAKE,1418,BC,-120.283333,49.7,1020.0,1974-05-01,2001-01-01,Daily,Precipitation Amount|Precipitation Climatology|Rainfall Amount|Snowfall Amount|Surface Snow Depth (Point)|Temperature (Max.)|Temperature (Min.)|Temperature Climatology (Max.)|Temperature Climatology (Mean)|Temperature Climatology (Min.)
48,1,EC,1125880,1072,OSPREY LAKE,1475,BC,-120.183333,49.7,1099.0,1928-09-01,1952-05-31,Daily,Precipitation Amount|Rainfall Amount|Snowfall Amount|Temperature (Max.)|Temperature (Min.)
148,12,FLNRO-WMB,332,1880,ZZ CHAIN LAKE,2283,BC,-120.3,49.7,10.0,1979-05-01,2000-10-01,Daily,Precipitation Amount|Precipitation Climatology|Relative Humidity (Mean)|Temperature (Point)|Wind Direction (Mean)|Wind Speed (Mean)
203,3,MoTIm,25003,2701,Elkhart Lake,3444,BC,-120.29925,49.8649,1550.0,1986-11-04,1994-04-30,Semi-daily,Precipitation Amount|Rainfall Amount|Relative Humidity (Point)|Snowfall Amount|Surface Snow Depth (Point)|Temperature (Max.)|Temperature (Min.)|Temperature (Point)|Wind Speed (Point)
227,17,ARDA,112046,4862,OSPREY LK ASB,6542,BC,-120.233333333333,49.7158333333333,1098.0,1971-04-04,1972-10-30,Daily,Precipitation (Cumulative)|Surface Snow Depth (Point)|Temperature (Max.)|Temperature (Min.)
228,17,ARDA,112047,4863,TSUH,6543,BC,-120.166666666667,49.72,1082.0,1971-05-27,1972-08-28,Irregular,Precipitation (Cumulative)|Surface Snow Depth (Point)
498,12,FLNRO-WMB,1285,12046,ZZ KATHLEEN LAKE TEMP,14103,BC,-120.06695,49.73833333,1397.0,2017-05-31,2017-10-20,Unspecified,Precipitation Amount|Relative Humidity (Mean)|Temperature (Point)|Wind Direction (Mean)|Wind Speed (Mean)
511,14,ENV-ASP,2F01AP,12509,Trout Creek West,14531,BC,-120.1891,49.74017,1420.0,2019-12-16,2024-01-14,Unspecified,Cumulative Precipitation|Precipitation 1hr|Precipitation 24hr|Snow Depth|Snow Water Equivalent|Temperature (Mean)
